_id,bathroom_num,bedroom_num,bizcircle_name,city,dist,distance,frame_orientation,hall_num,house_tag,house_title,latitude,layout,longitude,m_url,rent_area,rent_price_listing,rent_price_unit,resblock_name,type
5d1a098538a4e51e8e5e0729,1,1,田村,北京,海淀,912,南,0,近地铁 精装 集中供暖 随时看房,整租·乐府江南 1室0厅 南,39.933567,1室0厅1卫,116.268601,https://m.lianjia.com/chuzu/bj/zufang/BJ2281598026252828672.html,38,5000,元/月,乐府江南,整租
5d1a1f4138a4e51e8e5e5219,1,1,回龙观,北京,昌平,,北,0,集中供暖,整租·东亚上北中心 1房间 北,40.087773,1房间1卫,116.347998,https://m.lianjia.com/chuzu/bj/zufang/BJ2263042389168373760.html,39,4300,元/月,东亚上北中心,整租
5d1a0a0338a4e51e8e5e08de,1,2,五棵松,北京,海淀,,南 北,1,集中供暖,整租·永金里小区 2室1厅 南/北,39.927194,2室1厅1卫,116.278849,https://m.lianjia.com/chuzu/bj/zufang/BJ2141761762084012032.html,86,6500,元/月,永金里小区,整租
5d1a1e0d38a4e51e8e5e4dcd,2,2,北七家,北京,昌平,,南 北,2,随时看房,名佳花园一区 2室2厅 南/北,40.111125,2室2厅2卫,116.429292,https://m.lianjia.com/chuzu/bj/zufang/BJ2280862517825634304.html,89,4600,元/月,名佳花园一区,整租
5d1a0dd838a4e51e8e5e15df,1,1,菜户营,北京,丰台,,南 北,1,精装 集中供暖 新上,整租·顺驰蓝调 1室1厅 南/北,39.877035,1室1厅1卫,116.345863,https://m.lianjia.com/chuzu/bj/zufang/BJ2290427672045551616.html,74,6200,元/月,顺驰蓝调,整租
5d1a2c3c38a4e51e8e5e7632,1,3,长阳,北京,房山,,南 北,1,集中供暖,绿地新都会 3室1厅 南/北,39.760938,3室1厅1卫,116.16963,https://m.lianjia.com/chuzu/bj/zufang/BJ2279718216928870400.html,100,4500,元/月,绿地新都会,整租
5d1a2b0138a4e51e8e5e7252,1,2,顺义城,北京,顺义,,南 北,1,集中供暖 新上 随时看房,裕龙三区 2室1厅 南/北,40.129754,2室1厅1卫,116.678194,https://m.lianjia.com/chuzu/bj/zufang/BJ2290991680071417856.html,94,3800,元/月,裕龙三区,整租
5d1a2b5338a4e51e8e5e7368,1,2,顺义其它,北京,顺义,,东,1,集中供暖,鹭峯国际 3房间 东,40.101955,3房间1卫,116.66943,https://m.lianjia.com/chuzu/bj/zufang/BJ2254861567684788224.html,91,3500,元/月,鹭峯国际,整租
5d1a2c2c38a4e51e8e5e75fb,1,1,长阳,北京,房山,1186,东,0,随时看房,半岛金街 1房间 东,39.759459,1房间1卫,116.219353,https://m.lianjia.com/chuzu/bj/zufang/BJ2227580481275707392.html,53,3600,元/月,半岛金街,整租
5d1a218b38a4e51e8e5e58e2,3,4,高米店南,北京,大兴,1178,南 北,2,精装,整租·翡翠城三期 4室2厅 南/北,39.777309,4室2厅3卫,116.32146,https://m.lianjia.com/chuzu/bj/zufang/BJ2252904832006356992.html,192,18000,元/月,翡翠城三期,整租
5d1a1d6f38a4e51e8e5e4b9b,1,4,奥林匹克公园,北京,昌平,61,南 北,2,近地铁 集中供暖,整租·上林世家 4室2厅 南/北,40.025173,4室2厅1卫,116.380489,https://m.lianjia.com/chuzu/bj/zufang/BJ2236703511511302144.html,213,22000,元/月,上林世家,整租
5d1a11dc38a4e51e8e5e23bb,1,1,青塔,北京,丰台,,南,1,集中供暖 随时看房,整租·青塔秀园 1室1厅 南,39.897262,1室1厅1卫,116.269851,https://m.lianjia.com/chuzu/bj/zufang/BJ2231903805765582848.html,45,3800,元/月,青塔秀园,整租
5d1a2a6d38a4e51e8e5e7047,1,1,顺义城,北京,顺义,,南 北,1,集中供暖,整租·石园北区 1室1厅 南/北,40.118729,1室1厅1卫,116.670101,https://m.lianjia.com/chuzu/bj/zufang/BJ2233915729785667584.html,73,2900,元/月,石园北区,整租
5d1a0e0e38a4e51e8e5e169c,1,2,大红门,北京,丰台,1033,东南,1,集中供暖 随时看房,上海建筑 2室1厅 东南,39.842515,2室1厅1卫,116.39391,https://m.lianjia.com/chuzu/bj/zufang/BJ2278689567294881792.html,89,6700,元/月,上海建筑,整租
5d1a239c38a4e51e8e5e5df1,1,1,天宫院南,北京,大兴,,南,1,精装 集中供暖 随时看房,整租·众美MIMO公馆 2房间 南,39.638571,2房间1卫,116.329311,https://m.lianjia.com/chuzu/bj/zufang/BJ2274671465309667328.html,52,2300,元/月,众美MIMO公馆,整租
5d1a1a5938a4e51e8e5e40bf,2,3,通州其它,北京,亦庄开发区,,南 北,1,双卫生间 随时看房,整租·润枫领尚 3室1厅 南/北,39.830621,3室1厅2卫,116.561289,https://m.lianjia.com/chuzu/bj/zufang/BJ2226660512274317312.html,120,5500,元/月,润枫领尚,整租
5d1a152938a4e51e8e5e2f27,1,2,门头沟其它,北京,门头沟,,南,1,集中供暖 随时看房,中国铁建梧桐汇 3房间 南,39.90556,3房间1卫,116.15254,https://m.lianjia.com/chuzu/bj/zufang/BJ2266614738190876672.html,78,3600,元/月,中国铁建梧桐汇,整租
5d1a17be38a4e51e8e5e37ab,2,5,潞苑,北京,通州,,南 北,3,集中供暖 双卫生间,整租·新华联培训中心家属楼 5室3厅 南/北,39.937087,5室3厅2卫,116.677896,https://m.lianjia.com/chuzu/bj/zufang/BJ2173835667174866944.html,143,5500,元/月,新华联培训中心家属楼,整租
5d1a1d7a38a4e51e8e5e4bc0,1,2,奥林匹克公园,北京,昌平,,南,1,,澳林春天一期 2室1厅 南,40.018311,2室1厅1卫,116.375054,https://m.lianjia.com/chuzu/bj/zufang/BJ2262197980554084352.html,81,7000,元/月,澳林春天一期,整租
5d1a1a5238a4e51e8e5e40a6,2,2,通州其它,北京,亦庄开发区,,南,2,精装 双卫生间,整租·星悦国际 4房间 南,39.768586,4房间2卫,116.584874,https://m.lianjia.com/chuzu/bj/zufang/BJ2285343956739039232.html,105,4700,元/月,星悦国际,整租
5d1a1c8438a4e51e8e5e485e,1,1,亦庄,北京,亦庄开发区,290,北,1,近地铁 集中供暖 新上 随时看房,林肯公园 2房间 北,39.810115,2房间1卫,116.497474,https://m.lianjia.com/chuzu/bj/zufang/BJ2280946272658014208.html,51,5500,元/月,林肯公园,整租
5d1a221c38a4e51e8e5e5aea,2,2,黄村中,北京,大兴,331,南 北,2,近地铁 精装 集中供暖 双卫生间,整租·清澄名苑北区 2室2厅 南/北,39.744008,2室2厅2卫,116.334907,https://m.lianjia.com/chuzu/bj/zufang/BJ2217805105326202880.html,118,6500,元/月,清澄名苑北区,整租
5d1a25ac38a4e51e8e5e6315,1,3,枣园,北京,大兴,487,南 北,1,近地铁 集中供暖 新上,滨河西里北区 3室1厅 南/北,39.759469,3室1厅1卫,116.345374,https://m.lianjia.com/chuzu/bj/zufang/BJ2290478606356856832.html,88,4500,元/月,滨河西里北区,整租
5d1a107138a4e51e8e5e1ed5,1,1,刘家窑,北京,丰台,153,南,1,近地铁 集中供暖 随时看房,整租·鑫兆雅园北区 1室1厅 南,39.850451,1室1厅1卫,116.433516,https://m.lianjia.com/chuzu/bj/zufang/BJ2261409515373608960.html,68,6200,元/月,鑫兆雅园北区,整租
5d1a239b38a4e51e8e5e5ded,2,3,天宫院南,北京,大兴,,西南,1,集中供暖 新上,天恒旭辉7号院 4房间 西南,39.633359,4房间2卫,116.310967,https://m.lianjia.com/chuzu/bj/zufang/BJ2289582210509963264.html,63,3200,元/月,天恒旭辉7号院,整租
5d1a0d5338a4e51e8e5e1413,1,1,北大地,北京,丰台,,西,0,集中供暖 随时看房,福顺里 1室0厅 西,39.853268,1室0厅1卫,116.287131,https://m.lianjia.com/chuzu/bj/zufang/BJ2282338586726498304.html,56,4200,元/月,福顺里,整租
5d1a21df38a4e51e8e5e5a14,2,4,黄村北,北京,大兴,916,南 北,2,集中供暖 双卫生间 随时看房,整租·顺驰领海 4室2厅 南/北,39.781506,4室2厅2卫,116.325341,https://m.lianjia.com/chuzu/bj/zufang/BJ2190468084442071040.html,185,9500,元/月,顺驰领海,整租
5d1a16a338a4e51e8e5e33dc,1,2,果园,北京,通州,331,南 北,1,近地铁 集中供暖 新上,葛布店东里 2室1厅 南/北,39.897618,2室1厅1卫,116.674981,https://m.lianjia.com/chuzu/bj/zufang/BJ2290638748280692736.html,55,3500,元/月,葛布店东里,整租
5d1a205838a4e51e8e5e5600,1,2,西关环岛,北京,昌平,,南,1,集中供暖 随时看房,西环里 2室1厅 南,40.235529,2室1厅1卫,116.232365,https://m.lianjia.com/chuzu/bj/zufang/BJ2286250152535015424.html,50,3300,元/月,西环里,整租
5d1a145b38a4e51e8e5e2c58,0,1,古城,北京,石景山,891,北,0,近地铁 集中供暖,整租·中海金鑫阁 1房间 北,39.915732,1房间0卫,116.190419,https://m.lianjia.com/chuzu/bj/zufang/BJ1954021896471453696.html,83,22000,元/月,中海金鑫阁,整租
5d1a25f338a4e51e8e5e6413,2,3,枣园,北京,大兴,893,南 北,2,近地铁 集中供暖 双卫生间 随时看房,整租·丽园B区 3室2厅 南/北,39.757576,3室2厅2卫,116.326792,https://m.lianjia.com/chuzu/bj/zufang/BJ2277386181639675904.html,133,7300,元/月,丽园B区,整租
5d1a2d6b38a4e51e8e5e7a58,1,1,良乡,北京,房山,,南,1,,西潞园一里 1室1厅 南,39.739245,1室1厅1卫,116.137293,https://m.lianjia.com/chuzu/bj/zufang/BJ2282502676111966208.html,37,2400,元/月,西潞园一里,整租
5d1a1de638a4e51e8e5e4d41,3,5,北七家,北京,昌平,,南 北,2,集中供暖 随时看房,蓬莱公寓西区 5室2厅 南/北,40.130641,5室2厅3卫,116.421727,https://m.lianjia.com/chuzu/bj/zufang/BJ2251370740697792512.html,195,5800,元/月,蓬莱公寓西区,整租
5d1a0a6338a4e51e8e5e0a27,1,1,万柳,北京,海淀,1196,北,0,,蜂鸟家园 1室0厅 北,39.9707,1室0厅1卫,116.303301,https://m.lianjia.com/chuzu/bj/zufang/BJ2286146724990812160.html,52,6300,元/月,蜂鸟家园,整租
5d1a16a238a4e51e8e5e33d8,1,2,果园,北京,通州,470,南 北,1,近地铁 集中供暖 新上 随时看房,翠屏北里西区 2室1厅 复式 南/北,39.895875,2室1厅1卫,116.651506,https://m.lianjia.com/chuzu/bj/zufang/BJ2287511523587006464.html,60,4400,元/月,翠屏北里西区,整租
5d1a16e938a4e51e8e5e34cf,2,4,果园,北京,通州,482,南 北,2,近地铁 集中供暖,景欣园 4室2厅 南/北,39.895778,4室2厅2卫,116.6694,https://m.lianjia.com/chuzu/bj/zufang/BJ2135994846479908864.html,165,9500,元/月,景欣园,整租
5d1a0c4538a4e51e8e5e1080,1,2,玉泉路,北京,石景山,724,南 北,1,近地铁 集中供暖 新上,玉泉路16号院 2室1厅 南/北,39.919997,2室1厅1卫,116.26266,https://m.lianjia.com/chuzu/bj/zufang/BJ2287717109075558400.html,59,6300,元/月,玉泉路16号院,整租
5d1a0f0838a4e51e8e5e19f7,1,1,旧宫,北京,大兴,171,南,1,近地铁 随时看房,万源西里 1室1厅 南,39.807286,1室1厅1卫,116.426393,https://m.lianjia.com/chuzu/bj/zufang/BJ2264366024595865600.html,44,3600,元/月,万源西里,整租
5d1a2d3338a4e51e8e5e7993,1,3,良乡,北京,房山,,南 北,1,集中供暖 随时看房,整租·昊文温泉家园 3室1厅 南/北,39.738798,3室1厅1卫,116.153299,https://m.lianjia.com/chuzu/bj/zufang/BJ2228743585321459712.html,127,3200,元/月,昊文温泉家园,整租
5d1a25e038a4e51e8e5e63d1,1,2,枣园,北京,大兴,59,南 北,1,近地铁 集中供暖 随时看房,整租·枣园小区 2室1厅 南/北,39.757413,2室1厅1卫,116.334045,https://m.lianjia.com/chuzu/bj/zufang/BJ2178295485566025728.html,71,4000,元/月,枣园小区,整租
5d1a0feb38a4e51e8e5e1d08,1,1,科技园区,北京,大兴,594,东,0,近地铁 精装 集中供暖,整租·中海御鑫阁 1室0厅 东,39.825059,1室0厅1卫,116.305143,https://m.lianjia.com/chuzu/bj/zufang/BJ2274360963728162816.html,37,4700,元/月,中海御鑫阁,整租
5d1a124038a4e51e8e5e2515,1,2,宋家庄,北京,丰台,1169,东南,1,近地铁 新上,横一条甲18号院 2室1厅 东南,39.858116,2室1厅1卫,116.440459,https://m.lianjia.com/chuzu/bj/zufang/BJ2286094434427224064.html,86,7000,元/月,横一条甲18号院,整租
5d1a0db338a4e51e8e5e155f,4,5,草桥,北京,丰台,186,南 北,2,近地铁 精装 集中供暖 新上,整租·恋日嘉园一期 5室2厅 南/北,39.850685,5室2厅4卫,116.36247,https://m.lianjia.com/chuzu/bj/zufang/BJ2289893993200492544.html,294,22000,元/月,恋日嘉园一期,整租
5d1a1d9338a4e51e8e5e4c19,1,2,安宁庄,北京,昌平,,南,1,集中供暖,安宁里南区 2室1厅 南,40.051503,2室1厅1卫,116.338433,https://m.lianjia.com/chuzu/bj/zufang/BJ2280476061517225984.html,80,6000,元/月,安宁里南区,整租
5d1a14e638a4e51e8e5e2e3e,2,2,鲁谷,北京,石景山,,东 南,1,集中供暖 随时看房,紫御长安 3房间 东/南,39.908471,3房间2卫,116.228041,https://m.lianjia.com/chuzu/bj/zufang/BJ2257736338604564480.html,58,7300,元/月,紫御长安,整租
5d1a178738a4e51e8e5e36f3,1,1,潞苑,北京,通州,,西,1,集中供暖,K2清水湾 1室1厅 西,39.931339,1室1厅1卫,116.689177,https://m.lianjia.com/chuzu/bj/zufang/BJ2268126904957804544.html,82,3500,元/月,K2清水湾,整租
5d1a09bf38a4e51e8e5e07f1,1,2,五道口,北京,海淀,236,东 西,1,近地铁 集中供暖,东王庄 2室1厅 东/西,40.004589,2室1厅1卫,116.347007,https://m.lianjia.com/chuzu/bj/zufang/BJ2285242440581922816.html,61,8700,元/月,东王庄,整租
5d1a118c38a4e51e8e5e22a7,1,1,马连道,北京,丰台,,东,0,随时看房,北欧印象 1室0厅 东,39.882166,1室0厅1卫,116.336945,https://m.lianjia.com/chuzu/bj/zufang/BJ2265178121307701248.html,29,3800,元/月,北欧印象,整租
5d1a102538a4e51e8e5e1dcf,2,3,科技园区,北京,大兴,,南 北,1,精装 双卫生间 随时看房,整租·富锦嘉园二区 3室1厅 南/北,39.823165,3室1厅2卫,116.293663,https://m.lianjia.com/chuzu/bj/zufang/BJ2203569940655505408.html,119,9900,元/月,富锦嘉园二区,整租
5d1a1a1e38a4e51e8e5e3ff3,1,2,通州北苑,北京,通州,956,南 北,1,集中供暖,西马庄园 2室1厅 南/北,39.918867,2室1厅1卫,116.636774,https://m.lianjia.com/chuzu/bj/zufang/BJ2286140955348713472.html,69,4000,元/月,西马庄园,整租
5d1a166b38a4e51e8e5e331b,1,2,大兴其它,北京,亦庄开发区,,南 北,1,精装 集中供暖 随时看房,团河苑 2室1厅 南/北,39.747088,2室1厅1卫,116.378225,https://m.lianjia.com/chuzu/bj/zufang/BJ2249726320588365824.html,61,3300,元/月,团河苑,整租
5d1a1cba38a4e51e8e5e4927,2,2,亦庄,北京,亦庄开发区,316,西南,1,近地铁 集中供暖 随时看房,林肯公园二期C区 3房间 西南,39.809567,3房间2卫,116.497855,https://m.lianjia.com/chuzu/bj/zufang/BJ2252151005082812416.html,122,10000,元/月,林肯公园二期C区,整租
5d1a182438a4e51e8e5e390f,1,1,梨园,北京,通州,206,西北,1,近地铁 精装 集中供暖 随时看房,整租·新通国际花园 1室1厅 西北,39.889108,1室1厅1卫,116.679317,https://m.lianjia.com/chuzu/bj/zufang/BJ2254302156842868736.html,71,4300,元/月,新通国际花园,整租
5d1a29af38a4e51e8e5e6dab,1,1,马坡,北京,顺义,,南,0,集中供暖 随时看房,香悦四季 1房间 南,40.186753,1房间1卫,116.665923,https://m.lianjia.com/chuzu/bj/zufang/BJ2286075704955650048.html,42,2400,元/月,香悦四季,整租
5d1a0be838a4e51e8e5e0f47,1,2,新街口,北京,海淀,572,南 北,1,近地铁 集中供暖 新上,志强南园 2室1厅 南/北,39.957136,2室1厅1卫,116.375072,https://m.lianjia.com/chuzu/bj/zufang/BJ2286795494128615424.html,58,8000,元/月,志强南园,整租
5d1a13a538a4e51e8e5e29e4,1,2,右安门外,北京,丰台,,东,1,精装 集中供暖,整租·玉林里小区 2室1厅 东,39.870465,2室1厅1卫,116.364028,https://m.lianjia.com/chuzu/bj/zufang/BJ2274432409971990528.html,60,5300,元/月,玉林里小区,整租
5d1a13d938a4e51e8e5e2a93,1,1,洋桥,北京,丰台,750,南,1,近地铁 精装 集中供暖,整租·海户西里34号院 1室1厅 南,39.856592,1室1厅1卫,116.395003,https://m.lianjia.com/chuzu/bj/zufang/BJ2285512618191880192.html,50,4500,元/月,海户西里34号院,整租
5d1a0d2838a4e51e8e5e1383,1,2,紫竹桥,北京,海淀,790,南,1,近地铁 精装 集中供暖,整租·北洼西里 2室1厅 南,39.943704,2室1厅1卫,116.308482,https://m.lianjia.com/chuzu/bj/zufang/BJ2264250559811305472.html,55,7200,元/月,北洼西里,整租
5d1a0e9138a4e51e8e5e185b,2,3,广安门,北京,丰台,701,南 北,2,随时看房,红山世家 3室2厅 南/北,39.899642,3室2厅2卫,116.340073,https://m.lianjia.com/chuzu/bj/zufang/BJ2251451741726326784.html,142,18000,元/月,红山世家,整租
5d1a2dc638a4e51e8e5e7b97,2,4,滨河西区,北京,门头沟,,南 北,1,集中供暖,承泽苑 4室1厅 南/北,39.937384,4室1厅2卫,116.122354,https://m.lianjia.com/chuzu/bj/zufang/BJ2233178708146135040.html,121,5500,元/月,承泽苑,整租
5d1a105f38a4e51e8e5e1e95,1,2,丽泽,北京,丰台,202,南,2,近地铁 集中供暖 随时看房,整租·保利百合 2室2厅 南,39.884145,2室2厅1卫,116.312396,https://m.lianjia.com/chuzu/bj/zufang/BJ2259423917431603200.html,78,8200,元/月,保利百合,整租
5d1a2a7938a4e51e8e5e706e,2,3,顺义城,北京,顺义,,南 北,1,双卫生间,整租·裕龙六区 3室1厅 南/北,40.124464,3室1厅2卫,116.683576,https://m.lianjia.com/chuzu/bj/zufang/BJ2227529280223444992.html,119,4500,元/月,裕龙六区,整租
5d1a2d5938a4e51e8e5e7a19,1,2,良乡,北京,房山,,南,1,集中供暖 随时看房,行宫园三里 2室1厅 南,39.754184,2室1厅1卫,116.154637,https://m.lianjia.com/chuzu/bj/zufang/BJ2258571905122705408.html,71,2700,元/月,行宫园三里,整租
5d1a1b7838a4e51e8e5e44ad,2,2,万达,北京,通州,823,南 北,1,近地铁 精装 集中供暖 双卫生间,整租·保利大都汇 2室1厅 南/北,39.919145,2室1厅2卫,116.663948,https://m.lianjia.com/chuzu/bj/zufang/BJ2278250171882283008.html,56,7000,元/月,保利大都汇,整租
5d1a0e7638a4e51e8e5e17ff,1,1,广安门,北京,丰台,681,西南,1,近地铁 精装 集中供暖 新上,整租·荣丰2008 1室1厅 跃层 西南,39.900529,1室1厅1卫,116.343245,https://m.lianjia.com/chuzu/bj/zufang/BJ2276144801881792512.html,35,6600,元/月,荣丰2008,整租
5d1a25ae38a4e51e8e5e631c,1,1,枣园,北京,大兴,536,西南,1,近地铁 精装 集中供暖 新上,整租·红木林 1室1厅 西南,39.760321,1室1厅1卫,116.332577,https://m.lianjia.com/chuzu/bj/zufang/BJ2290571648627384320.html,44,4500,元/月,红木林,整租
5d1a172a38a4e51e8e5e35b2,1,2,九棵树(家乐福),北京,通州,464,南,1,近地铁 精装 集中供暖 随时看房,整租·K2玉蘭湾 2室1厅 南,39.894058,2室1厅1卫,116.665685,https://m.lianjia.com/chuzu/bj/zufang/BJ2248579747829792768.html,91,6600,元/月,K2玉蘭湾,整租
5d1a0ae238a4e51e8e5e0bd6,1,1,西三旗,北京,昌平,206,南,1,近地铁 集中供暖,文晟家园 1室1厅 南,40.056348,1室1厅1卫,116.358792,https://m.lianjia.com/chuzu/bj/zufang/BJ2275858154087006208.html,56,5500,元/月,文晟家园,整租
5d1a091f38a4e51e8e5e05d3,2,2,世纪城,北京,海淀,,南,1,精装 集中供暖 双卫生间 随时看房,整租·世纪金源国际公寓 2室1厅 南,39.959535,2室1厅2卫,116.286376,https://m.lianjia.com/chuzu/bj/zufang/BJ2258003772888317952.html,176,19500,元/月,世纪金源国际公寓,整租
5d1a106e38a4e51e8e5e1ecd,1,2,刘家窑,北京,丰台,751,东南,1,近地铁 集中供暖 新上 随时看房,整租·顺四条37号院 2室1厅 东南,39.860754,2室1厅1卫,116.43383,https://m.lianjia.com/chuzu/bj/zufang/BJ2289053976735522816.html,66,5200,元/月,顺四条37号院,整租
5d1a11fc38a4e51e8e5e2424,1,2,青塔,北京,丰台,,南 北,1,精装,整租·汇锦苑 2室1厅 南/北,39.901217,2室1厅1卫,116.260714,https://m.lianjia.com/chuzu/bj/zufang/BJ2172459610839973888.html,80,6200,元/月,汇锦苑,整租
5d1a239738a4e51e8e5e5ddc,1,2,天宫院南,北京,大兴,,南 北,1,集中供暖 新上 随时看房,隆盛园 2室1厅 南/北,39.62674,2室1厅1卫,116.328202,https://m.lianjia.com/chuzu/bj/zufang/BJ2289834810119823360.html,97,2600,元/月,隆盛园,整租
5d1a0f5f38a4e51e8e5e1b1c,1,2,旧宫,北京,大兴,,南 北,1,集中供暖,清乐园 2室1厅 南/北,39.809427,2室1厅1卫,116.440269,https://m.lianjia.com/chuzu/bj/zufang/BJ2284004360759279616.html,71,4000,元/月,清乐园,整租
5d1a2ebe38a4e51e8e5e7eab,1,1,大峪,北京,门头沟,,南,1,集中供暖,金泰丽湾悦栖山 1室1厅 南,39.942737,1室1厅1卫,116.099742,https://m.lianjia.com/chuzu/bj/zufang/BJ2273881770737287168.html,44,2400,元/月,金泰丽湾悦栖山,整租
5d1a28d438a4e51e8e5e6aa0,2,3,后沙峪,北京,顺义,,南 北,1,集中供暖,万科城市花园 3室1厅 南/北,40.110054,3室1厅2卫,116.560168,https://m.lianjia.com/chuzu/bj/zufang/BJ2283974999507746816.html,111,8500,元/月,万科城市花园,整租
5d1a2bbd38a4e51e8e5e7477,4,4,中央别墅区,北京,顺义,,东 南 西 北,3,精装,整租·龙湾别墅 4室3厅 东/南/西/北,40.087744,4室3厅4卫,116.516835,https://m.lianjia.com/chuzu/bj/zufang/BJ2207080663927504896.html,306,35000,元/月,龙湾别墅,整租
5d1a0b7d38a4e51e8e5e0de2,1,1,小西天,北京,海淀,,南,1,精装 集中供暖 随时看房,整租·学院南路32号院 1室1厅 南,39.963163,1室1厅1卫,116.365543,https://m.lianjia.com/chuzu/bj/zufang/BJ2260205257126846464.html,35,6600,元/月,学院南路32号院,整租
5d1a2ed138a4e51e8e5e7eef,1,1,大峪,北京,门头沟,,东 南,1,集中供暖 随时看房,中昂时代广场 2房间 东/南,39.949929,2房间1卫,116.102869,https://m.lianjia.com/chuzu/bj/zufang/BJ2272891368718745600.html,45,3300,元/月,中昂时代广场,整租
5d1a0b7f38a4e51e8e5e0deb,1,3,小西天,北京,海淀,,东 西北,1,集中供暖,今典花园 3室1厅 东/西北,39.959568,3室1厅1卫,116.367818,https://m.lianjia.com/chuzu/bj/zufang/BJ2266447990313467904.html,90,13000,元/月,今典花园,整租
5d1a12a438a4e51e8e5e266a,1,2,西红门,北京,大兴,,南 北,1,集中供暖 随时看房,整租·宏福园 2室1厅 南/北,39.802901,2室1厅1卫,116.347785,https://m.lianjia.com/chuzu/bj/zufang/BJ2257835908588388352.html,81,4100,元/月,宏福园,整租
5d1a09e938a4e51e8e5e0887,1,1,五道口,北京,海淀,743,北,0,近地铁 集中供暖,龙湖唐宁one 1房间 北,39.994651,1房间1卫,116.340959,https://m.lianjia.com/chuzu/bj/zufang/BJ2280486347678416896.html,50,8800,元/月,龙湖唐宁one,整租
5d1a0d2638a4e51e8e5e137b,2,4,紫竹桥,北京,海淀,775,东南,1,近地铁 精装 集中供暖 双卫生间,整租·紫竹花园 4室1厅 东南,39.949819,4室1厅2卫,116.310177,https://m.lianjia.com/chuzu/bj/zufang/BJ2264494945177960448.html,231,25000,元/月,紫竹花园,整租
5d1a1b4e38a4e51e8e5e4418,2,2,武夷花园,北京,通州,,东,1,集中供暖 新上,百合湾 3房间 跃层 东,39.920038,3房间2卫,116.697632,https://m.lianjia.com/chuzu/bj/zufang/BJ2274369592845672448.html,36,3900,元/月,百合湾,整租
5d1a16ba38a4e51e8e5e342d,1,2,果园,北京,通州,390,南,1,近地铁 集中供暖 新上 随时看房,葛布店南里 2室1厅 南,39.897465,2室1厅1卫,116.668441,https://m.lianjia.com/chuzu/bj/zufang/BJ2267273790050811904.html,59,3800,元/月,葛布店南里,整租
5d1a16ca38a4e51e8e5e3466,1,2,果园,北京,通州,911,南 北,1,近地铁 精装 集中供暖,整租·复兴南里 2室1厅 南/北,39.903236,2室1厅1卫,116.653691,https://m.lianjia.com/chuzu/bj/zufang/BJ2277310806976626688.html,92,4600,元/月,复兴南里,整租
5d1a0e6738a4e51e8e5e17cc,3,3,方庄,北京,丰台,181,南 北,1,近地铁 集中供暖,整租·芳群公寓 3室1厅 南/北,39.864893,3室1厅3卫,116.431465,https://m.lianjia.com/chuzu/bj/zufang/BJ2194938601689849856.html,147,12000,元/月,芳群公寓,整租
5d1a12b138a4e51e8e5e2698,1,2,西红门,北京,大兴,624,南 北,1,近地铁 新上,兴海家园星苑 2室1厅 南/北,39.797448,2室1厅1卫,116.342803,https://m.lianjia.com/chuzu/bj/zufang/BJ2289870003391954944.html,84,6000,元/月,兴海家园星苑,整租
5d1a1bdb38a4e51e8e5e4607,1,2,万达,北京,通州,,南 北,1,集中供暖,在水一方 2室1厅 南/北,39.918957,2室1厅1卫,116.651219,https://m.lianjia.com/chuzu/bj/zufang/BJ2276864523476402176.html,83,4500,元/月,在水一方,整租
5d1a109238a4e51e8e5e1f46,2,2,刘家窑,北京,丰台,171,南,1,近地铁 集中供暖,鲁能钓鱼台美高梅公馆 3房间 南,39.851071,3房间2卫,116.430329,https://m.lianjia.com/chuzu/bj/zufang/BJ2190301657965789184.html,63,8200,元/月,鲁能钓鱼台美高梅公馆,整租
5d1a1f1e38a4e51e8e5e519c,1,2,回龙观,北京,昌平,924,南,1,近地铁 集中供暖,整租·龙城花园北二区 2室1厅 南,40.094854,2室1厅1卫,116.305672,https://m.lianjia.com/chuzu/bj/zufang/BJ2279492812439830528.html,66,4800,元/月,龙城花园北二区,整租
5d1a15e338a4e51e8e5e3141,1,2,北关,北京,通州,,西北,1,月租 精装 集中供暖 随时看房,整租·东阁雅舍 2室1厅 西北,39.925985,2室1厅1卫,116.658388,https://m.lianjia.com/chuzu/bj/zufang/BJ2241827292488155136.html,118,4500,元/月,东阁雅舍,整租
5d1a0e2538a4e51e8e5e16e7,2,3,丰台其它,北京,丰台,,南 北,2,集中供暖,燕西华府 3室2厅 南/北,39.801425,3室2厅2卫,116.116607,https://m.lianjia.com/chuzu/bj/zufang/BJ2190510064148946944.html,118,8000,元/月,燕西华府,整租
5d1a1dc238a4e51e8e5e4cbd,3,4,北七家,北京,昌平,,南 北,2,集中供暖 随时看房,整租·海德堡花园 4室2厅 跃层 南/北,40.114191,4室2厅3卫,116.462805,https://m.lianjia.com/chuzu/bj/zufang/BJ2197781397232959488.html,186,8000,元/月,海德堡花园,整租
5d1a0bdc38a4e51e8e5e0f1e,1,1,新街口,北京,海淀,213,南,1,近地铁 集中供暖 随时看房,如意里 1室1厅 南,39.949254,1室1厅1卫,116.370813,https://m.lianjia.com/chuzu/bj/zufang/BJ2267111480225185792.html,43,6300,元/月,如意里,整租
5d1a202338a4e51e8e5e5541,2,3,天通苑,北京,昌平,,南 北,1,精装 集中供暖 双卫生间,整租·天通苑东一区 3室1厅 南/北,40.072066,3室1厅2卫,116.43942,https://m.lianjia.com/chuzu/bj/zufang/BJ2273161707482791936.html,130,7600,元/月,天通苑东一区,整租
5d1a2f6238a4e51e8e5e8064,1,2,石门营,北京,门头沟,386,南 北,1,近地铁,整租·云泽嘉苑 2室1厅 南/北,39.896688,2室1厅1卫,116.121677,https://m.lianjia.com/chuzu/bj/zufang/BJ2203312105967321088.html,63,3500,元/月,云泽嘉苑,整租
5d1a215038a4e51e8e5e5818,1,2,观音寺,北京,大兴,,南 北,1,集中供暖,观音寺南里 2室1厅 南/北,39.728719,2室1厅1卫,116.35625,https://m.lianjia.com/chuzu/bj/zufang/BJ2214211362760949760.html,69,3000,元/月,观音寺南里,整租
5d1a15f338a4e51e8e5e3177,1,2,北关,北京,通州,,南,1,新上 随时看房,新地国际家园 2室1厅 南,39.956566,2室1厅1卫,116.658301,https://m.lianjia.com/chuzu/bj/zufang/BJ2286851315726827520.html,101,5000,元/月,新地国际家园,整租
5d1a257538a4e51e8e5e6256,1,2,郁花园,北京,大兴,498,南 北,1,近地铁 精装 集中供暖,整租·郁花园一里 2室1厅 南/北,39.780149,2室1厅1卫,116.344557,https://m.lianjia.com/chuzu/bj/zufang/BJ2280401206294102016.html,73,5000,元/月,郁花园一里,整租
5d1a1f3e38a4e51e8e5e5211,1,1,回龙观,北京,昌平,,西,1,精装 集中供暖 随时看房,整租·东亚上北中心 2房间 西,40.087773,2房间1卫,116.347998,https://m.lianjia.com/chuzu/bj/zufang/BJ2244143901798055936.html,57,5200,元/月,东亚上北中心,整租
5d1a29f438a4e51e8e5e6e9f,2,3,顺义城,北京,顺义,753,南 北,2,近地铁 集中供暖 双卫生间 新上,整租·东兴二区 3室2厅 南/北,40.138289,3室2厅2卫,116.673001,https://m.lianjia.com/chuzu/bj/zufang/BJ2288389372145573888.html,116,4500,元/月,东兴二区,整租
5d1a1b4738a4e51e8e5e43fd,1,2,武夷花园,北京,通州,,南 北,1,集中供暖 新上,京贸国际城东区 2室1厅 南/北,39.925858,2室1厅1卫,116.697005,https://m.lianjia.com/chuzu/bj/zufang/BJ2289787512228683776.html,74,4300,元/月,京贸国际城东区,整租
5d1a2aed38a4e51e8e5e720c,1,2,顺义城,北京,顺义,,南 北,1,集中供暖 新上,石园南区 2室1厅 南/北,40.113345,2室1厅1卫,116.668841,https://m.lianjia.com/chuzu/bj/zufang/BJ2287705980890521600.html,84,3600,元/月,石园南区,整租
5d1a124238a4e51e8e5e251e,1,2,宋家庄,北京,丰台,,东,1,精装 随时看房,整租·元熙华府 2室1厅 东,39.857746,2室1厅1卫,116.439659,https://m.lianjia.com/chuzu/bj/zufang/BJ2269460145065443328.html,63,8000,元/月,元熙华府,整租
5d1a134338a4e51e8e5e2894,1,3,岳各庄,北京,丰台,,南,1,精装 集中供暖 随时看房,整租·紫辰院 4房间 南,39.887554,4房间1卫,116.288146,https://m.lianjia.com/chuzu/bj/zufang/BJ2254052766069047296.html,100,10300,元/月,紫辰院,整租
5d1a2f7c38a4e51e8e5e80c0,1,2,石门营,北京,门头沟,175,南 北,1,,紫金新园二区 2室1厅 南/北,39.895301,2室1厅1卫,116.118754,https://m.lianjia.com/chuzu/bj/zufang/BJ2230190369809899520.html,64,5000,元/月,紫金新园二区,整租
5d1a126138a4e51e8e5e2587,1,2,十里河,北京,丰台,,南,1,集中供暖,林达海渔广场 3房间 南,39.869812,3房间1卫,116.492222,https://m.lianjia.com/chuzu/bj/zufang/BJ2202196506332119040.html,85,7000,元/月,林达海渔广场,整租
5d1a203f38a4e51e8e5e55a4,1,2,天通苑,北京,昌平,674,南,1,近地铁 集中供暖,公园两栋 3房间 南,40.066201,3房间1卫,116.41901,https://m.lianjia.com/chuzu/bj/zufang/BJ2273706676110761984.html,56,5800,元/月,公园两栋,整租
5d1a0bca38a4e51e8e5e0ee2,1,2,西直门,北京,海淀,1099,西北,1,集中供暖 新上 随时看房,卫生部小区 2室1厅 西北,39.955386,2室1厅1卫,116.355475,https://m.lianjia.com/chuzu/bj/zufang/BJ2291132980896202752.html,55,7200,元/月,卫生部小区,整租
5d1a261838a4e51e8e5e6498,1,1,枣园,北京,大兴,524,北,1,近地铁 集中供暖,整租·波普公社 2房间 北,39.752366,2房间1卫,116.338152,https://m.lianjia.com/chuzu/bj/zufang/BJ2225132360200880128.html,67,4200,元/月,波普公社,整租
5d1a2ecc38a4e51e8e5e7edd,1,2,大峪,北京,门头沟,,南,1,集中供暖,整租·惠民家园 2室1厅 南,39.944701,2室1厅1卫,116.100772,https://m.lianjia.com/chuzu/bj/zufang/BJ2248317460392714240.html,62,2800,元/月,惠民家园,整租
5d1a11a838a4e51e8e5e230a,1,2,马连道,北京,丰台,251,南 北,1,近地铁 集中供暖,整租·马连道中里 2室1厅 复式 南/北,39.893507,2室1厅1卫,116.336918,https://m.lianjia.com/chuzu/bj/zufang/BJ2201901814104719360.html,68,7500,元/月,马连道中里,整租
5d1a2a7038a4e51e8e5e7051,1,2,顺义城,北京,顺义,,南 北,1,集中供暖 随时看房,裕龙四区 2室1厅 南/北,40.127539,2室1厅1卫,116.678491,https://m.lianjia.com/chuzu/bj/zufang/BJ2285499161748963328.html,71,3600,元/月,裕龙四区,整租
5d1a0d6538a4e51e8e5e1455,2,3,北京南站,北京,丰台,1098,南,1,新上 随时看房,世纪金色嘉园 3室1厅 南,39.875262,3室1厅2卫,116.378344,https://m.lianjia.com/chuzu/bj/zufang/BJ2285204573767606272.html,131,11000,元/月,世纪金色嘉园,整租
5d1a2e7b38a4e51e8e5e7dc4,1,2,大峪,北京,门头沟,,南,1,精装 随时看房,整租·西山环路7号院 2室1厅 南,39.933639,2室1厅1卫,116.107029,https://m.lianjia.com/chuzu/bj/zufang/BJ2120917734068846592.html,75,3500,元/月,西山环路7号院,整租
5d1a152a38a4e51e8e5e2f2b,0,1,门头沟其它,北京,门头沟,214,南,0,近地铁 集中供暖 押一付一,整租·远洋新天地 1房间 南,39.908921,1房间0卫,116.131369,https://m.lianjia.com/chuzu/bj/zufang/BJ2101601201920679936.html,24,4500,元/月,远洋新天地,整租
5d1a0da338a4e51e8e5e1527,1,1,成寿寺,北京,丰台,1,南,1,近地铁 集中供暖 随时看房,中海城紫鑫阁 2房间 南,39.850772,2房间1卫,116.454135,https://m.lianjia.com/chuzu/bj/zufang/BJ2270979558633652224.html,58,6200,元/月,中海城紫鑫阁,整租
5d1a0e9d38a4e51e8e5e1884,1,1,广安门,北京,丰台,563,东,1,近地铁 集中供暖,手帕口南街40号院 1室1厅 东,39.89255,1室1厅1卫,116.349884,https://m.lianjia.com/chuzu/bj/zufang/BJ2277251270383779840.html,40,4200,元/月,手帕口南街40号院,整租
5d1a1aba38a4e51e8e5e4215,2,3,武夷花园,北京,通州,635,南 北,1,近地铁 集中供暖 新上,运河湾 3室1厅 南/北,39.911017,3室1厅2卫,116.703234,https://m.lianjia.com/chuzu/bj/zufang/BJ2289213920227106816.html,127,7000,元/月,运河湾,整租
5d1a25e538a4e51e8e5e63e1,1,1,枣园,北京,大兴,401,南,1,近地铁 集中供暖,整租·枣园尚城 1室1厅 南,39.762158,1室1厅1卫,116.333958,https://m.lianjia.com/chuzu/bj/zufang/BJ2282582175796961280.html,61,4000,元/月,枣园尚城,整租
5d1a1a4e38a4e51e8e5e4098,1,2,通州其它,北京,亦庄开发区,,南 北,1,随时看房,润枫领尚 2室1厅 南/北,39.830621,2室1厅1卫,116.561289,https://m.lianjia.com/chuzu/bj/zufang/BJ2250002078217289728.html,87,4000,元/月,润枫领尚,整租
5d1a2e7638a4e51e8e5e7db4,1,3,大峪,北京,门头沟,,东 西,1,集中供暖,整租·惠民家园 3室1厅 东/西,39.944701,3室1厅1卫,116.100772,https://m.lianjia.com/chuzu/bj/zufang/BJ2249239426243248128.html,160,30000,元/月,惠民家园,整租
5d1a0b7a38a4e51e8e5e0dda,1,2,小西天,北京,海淀,,南,1,集中供暖 随时看房,整租·学院南路乙12号 2室1厅 南,39.963603,2室1厅1卫,116.371346,https://m.lianjia.com/chuzu/bj/zufang/BJ2260682631811170304.html,57,7200,元/月,学院南路乙12号,整租
5d1a1d1838a4e51e8e5e4a78,2,2,玉桥,北京,通州,,南,2,精装 双卫生间,整租·京艺天朗 2室2厅 南,39.89669,2室2厅2卫,116.693396,https://m.lianjia.com/chuzu/bj/zufang/BJ2282593993290694656.html,104,4600,元/月,京艺天朗,整租
5d1a0b2b38a4e51e8e5e0cd0,2,3,西北旺,北京,海淀,,南 北,2,精装 集中供暖 双卫生间 随时看房,整租·西山公馆 3室2厅 南/北,40.050845,3室2厅2卫,116.299708,https://m.lianjia.com/chuzu/bj/zufang/BJ2276704204385165312.html,151,17000,元/月,西山公馆,整租
5d1a0f2238a4e51e8e5e1a4c,2,3,旧宫,北京,大兴,1177,南 北,1,精装 双卫生间,整租·亦庄北岸 3室1厅 南/北,39.803697,3室1厅2卫,116.470465,https://m.lianjia.com/chuzu/bj/zufang/BJ2245546038775513088.html,109,5600,元/月,亦庄北岸,整租
5d1a1c7438a4e51e8e5e4824,1,3,亦庄,北京,亦庄开发区,,东 南,1,集中供暖 随时看房,北京经开荣京道 4房间 东/南,39.792304,4房间1卫,116.50372,https://m.lianjia.com/chuzu/bj/zufang/BJ2217889082489438208.html,117,8300,元/月,北京经开荣京道,整租
5d1a1ea238a4e51e8e5e4fe0,1,1,鼓楼大街,北京,昌平,584,南,0,近地铁 集中供暖,整租·嘉诚中心 1房间 南,40.223983,1房间1卫,116.243621,https://m.lianjia.com/chuzu/bj/zufang/BJ2175292443971559424.html,47,5500,元/月,嘉诚中心,整租
5d1a1af438a4e51e8e5e42dd,2,3,武夷花园,北京,通州,,南 北,1,精装 集中供暖 双卫生间 随时看房,整租·月亮城堡 3室1厅 南/北,39.925912,3室1厅2卫,116.685667,https://m.lianjia.com/chuzu/bj/zufang/BJ2171523129519128576.html,227,12000,元/月,月亮城堡,整租
5d1a137938a4e51e8e5e294c,1,1,玉泉营,北京,丰台,725,南,0,近地铁 精装 集中供暖 随时看房,整租·万柳园小区 1室0厅 南,39.855605,1室0厅1卫,116.34141,https://m.lianjia.com/chuzu/bj/zufang/BJ2278181302291136512.html,39,4600,元/月,万柳园小区,整租
5d1a131d38a4e51e8e5e280c,1,2,新宫,北京,丰台,1004,南 北,1,集中供暖,南庭新苑南区 2室1厅 南/北,39.809437,2室1厅1卫,116.374699,https://m.lianjia.com/chuzu/bj/zufang/BJ2284089296858390528.html,59,4500,元/月,南庭新苑南区,整租
5d1a1eab38a4e51e8e5e5001,1,2,回龙观,北京,昌平,981,南 北,1,近地铁 集中供暖 新上,龙华园 2室1厅 南/北,40.081334,2室1厅1卫,116.332045,https://m.lianjia.com/chuzu/bj/zufang/BJ2264257652865908736.html,78,5800,元/月,龙华园,整租
5d1a161738a4e51e8e5e31f6,1,2,北关,北京,通州,,南 北,1,集中供暖 随时看房,翠福园 2室1厅 南/北,39.951388,2室1厅1卫,116.659546,https://m.lianjia.com/chuzu/bj/zufang/BJ2273036589884522496.html,98,4000,元/月,翠福园,整租
5d1a1f4538a4e51e8e5e522a,1,2,回龙观,北京,昌平,1171,东,1,精装 集中供暖 随时看房,整租·华府9号 3房间 东,40.073672,3房间1卫,116.318822,https://m.lianjia.com/chuzu/bj/zufang/BJ2138410309352955904.html,85,9000,元/月,华府9号,整租
5d1a178838a4e51e8e5e36f5,1,2,潞苑,北京,通州,,南 北,1,集中供暖 新上 随时看房,华龙小区 2室1厅 南/北,39.934643,2室1厅1卫,116.695201,https://m.lianjia.com/chuzu/bj/zufang/BJ2288845269158068224.html,80,3500,元/月,华龙小区,整租
5d1a0ca238a4e51e8e5e11bc,1,1,皂君庙,北京,海淀,272,南,1,近地铁 集中供暖 新上 随时看房,天作国际中心 1室1厅 南,39.966964,1室1厅1卫,116.330578,https://m.lianjia.com/chuzu/bj/zufang/BJ2289895300556931072.html,39,7300,元/月,天作国际中心,整租
5d1a2a9d38a4e51e8e5e70ee,1,1,顺义城,北京,顺义,,北,1,集中供暖,怡馨家园 1室1厅 北,40.125799,1室1厅1卫,116.654682,https://m.lianjia.com/chuzu/bj/zufang/BJ2278189344239910912.html,63,4000,元/月,怡馨家园,整租
5d1a130938a4e51e8e5e27ca,1,2,新宫,北京,丰台,575,南,1,近地铁 集中供暖 新上,南庭新苑北区 2室1厅 南,39.812496,2室1厅1卫,116.375444,https://m.lianjia.com/chuzu/bj/zufang/BJ2288290598383255552.html,58,4700,元/月,南庭新苑北区,整租
5d1a0a5438a4e51e8e5e09f6,1,1,万柳,北京,海淀,1196,北,1,精装 集中供暖 随时看房,整租·蜂鸟家园 1室1厅 北,39.9707,1室1厅1卫,116.303301,https://m.lianjia.com/chuzu/bj/zufang/BJ2283086256856907776.html,48,6600,元/月,蜂鸟家园,整租
5d1a19ca38a4e51e8e5e3ed5,1,2,首都机场,北京,顺义,,南,1,集中供暖,整租·南平里 2室1厅 南,40.051164,2室1厅1卫,116.605035,https://m.lianjia.com/chuzu/bj/zufang/BJ2273697752879996928.html,55,5300,元/月,南平里,整租
5d1a122238a4e51e8e5e24ae,1,2,七里庄,北京,丰台,1039,南 北,1,精装 集中供暖 随时看房,整租·北大街北里 2室1厅 南/北,39.868154,2室1厅1卫,116.291986,https://m.lianjia.com/chuzu/bj/zufang/BJ2285268544176529408.html,58,4800,元/月,北大街北里,整租
5d1a1dea38a4e51e8e5e4d4d,1,2,北七家,北京,昌平,,南 北,1,集中供暖,整租·燕城苑南区 2室1厅 南/北,40.093691,2室1厅1卫,116.44439,https://m.lianjia.com/chuzu/bj/zufang/BJ2279049592316641280.html,69,5000,元/月,燕城苑南区,整租
5d1a1c6038a4e51e8e5e47da,3,5,亦庄,北京,亦庄开发区,,南 北,2,精装 集中供暖,整租·金地格林小镇 5室2厅 复式 南/北,39.799347,5室2厅3卫,116.501794,https://m.lianjia.com/chuzu/bj/zufang/BJ2164470236256927744.html,318,30000,元/月,金地格林小镇,整租
5d1a145f38a4e51e8e5e2c67,1,2,古城,北京,石景山,891,南,1,近地铁 集中供暖,中海金鑫阁 3房间 南,39.915732,3房间1卫,116.190419,https://m.lianjia.com/chuzu/bj/zufang/BJ2236898744803000320.html,122,16000,元/月,中海金鑫阁,整租
5d1a2db238a4e51e8e5e7b53,1,2,滨河西区,北京,门头沟,1041,西,1,近地铁 集中供暖 随时看房,迎晖南苑 2室1厅 西,39.91954,2室1厅1卫,116.129801,https://m.lianjia.com/chuzu/bj/zufang/BJ2274672507502477312.html,65,3600,元/月,迎晖南苑,整租
5d1a25a038a4e51e8e5e62ec,4,3,亦庄开发区其它,北京,亦庄开发区,,南 北,2,集中供暖,枫丹壹號二期 3室2厅 南/北,39.793708,3室2厅4卫,116.490627,https://m.lianjia.com/chuzu/bj/zufang/BJ2239600858549993472.html,218,15000,元/月,枫丹壹號二期,整租
5d1a11f838a4e51e8e5e2418,1,1,青塔,北京,丰台,,西,1,集中供暖,博龙家园 1室1厅 西,39.900036,1室1厅1卫,116.260405,https://m.lianjia.com/chuzu/bj/zufang/BJ2269455704597200896.html,68,5000,元/月,博龙家园,整租
5d1a2a1d38a4e51e8e5e6f2d,1,3,顺义城,北京,顺义,,南 北,2,集中供暖 随时看房,整租·裕龙六区 3室2厅 南/北,40.124464,3室2厅1卫,116.683576,https://m.lianjia.com/chuzu/bj/zufang/BJ2247581860773502976.html,117,3800,元/月,裕龙六区,整租
5d1a2c9738a4e51e8e5e7777,2,1,长阳,北京,房山,769,东,1,集中供暖 随时看房,五和万科长阳天地 2房间 东,39.773936,2房间2卫,116.194021,https://m.lianjia.com/chuzu/bj/zufang/BJ2274658894032666624.html,46,3300,元/月,五和万科长阳天地,整租
5d1a0eb438a4e51e8e5e18d3,2,1,广安门,北京,丰台,681,西,1,近地铁 集中供暖,荣丰2008 1室1厅 跃层 西,39.900529,1室1厅2卫,116.343245,https://m.lianjia.com/chuzu/bj/zufang/BJ2282497824191160320.html,39,7500,元/月,荣丰2008,整租
5d1a25cc38a4e51e8e5e6387,1,2,枣园,北京,大兴,,南 北,1,精装 集中供暖 随时看房,整租·康泰园 2室1厅 南/北,39.76297,2室1厅1卫,116.316644,https://m.lianjia.com/chuzu/bj/zufang/BJ2254799997323182080.html,81,3600,元/月,康泰园,整租
5d1a143d38a4e51e8e5e2bef,1,2,城子,北京,门头沟,,南 北,1,集中供暖 随时看房,城子大街126号 2室1厅 南/北,39.952747,2室1厅1卫,116.107315,https://m.lianjia.com/chuzu/bj/zufang/BJ2231867787129921536.html,58,2600,元/月,城子大街126号,整租
5d1a0bf738a4e51e8e5e0f79,1,3,新街口,北京,海淀,462,西 北,1,近地铁 集中供暖 随时看房,文慧园路2号院 3室1厅 西/北,39.95848,3室1厅1卫,116.377448,https://m.lianjia.com/chuzu/bj/zufang/BJ2210859091789103104.html,70,9500,元/月,文慧园路2号院,整租
5d1a2afd38a4e51e8e5e7245,1,1,顺义城,北京,顺义,,东,0,集中供暖 随时看房,石园南区18号院 1房间 东,40.113841,1房间1卫,116.671657,https://m.lianjia.com/chuzu/bj/zufang/BJ2267385683502956544.html,59,3600,元/月,石园南区18号院,整租
5d1a1fab38a4e51e8e5e5393,1,1,立水桥,北京,昌平,934,西,1,精装 集中供暖 随时看房,整租·明天第一城7号院 2房间 西,40.053513,2房间1卫,116.414421,https://m.lianjia.com/chuzu/bj/zufang/BJ2270114797016326144.html,57,5500,元/月,明天第一城7号院,整租
5d1a191c38a4e51e8e5e3c7a,1,2,马驹桥,北京,亦庄开发区,,南 北,1,精装 随时看房,整租·天鹅堡 2室1厅 南/北,39.754708,2室1厅1卫,116.542335,https://m.lianjia.com/chuzu/bj/zufang/BJ2156217437060866048.html,101,4300,元/月,天鹅堡,整租
5d1a1d6638a4e51e8e5e4b80,2,4,奥林匹克公园,北京,昌平,730,南 西 北,2,精装 集中供暖 双卫生间,整租·倚林佳园 4室2厅 南/西/北,40.020751,4室2厅2卫,116.378697,https://m.lianjia.com/chuzu/bj/zufang/BJ2198521749459976192.html,206,22000,元/月,倚林佳园,整租
5d1a0a8f38a4e51e8e5e0aba,1,1,西山,北京,海淀,,南,0,精装 随时看房,整租·门头馨园 1室0厅 南,39.983359,1室0厅1卫,116.230672,https://m.lianjia.com/chuzu/bj/zufang/BJ2277490359058055168.html,36,4600,元/月,门头馨园,整租
5d1a2e8c38a4e51e8e5e7dfe,1,2,大峪,北京,门头沟,,南 北,1,集中供暖 随时看房,整租·黑山A5区 2室1厅 南/北,39.940694,2室1厅1卫,116.105797,https://m.lianjia.com/chuzu/bj/zufang/BJ2273037311815974912.html,65,2900,元/月,黑山A5区,整租
5d1a216f38a4e51e8e5e5881,2,3,高米店南,北京,大兴,,南 北,2,精装 集中供暖 双卫生间 随时看房,整租·金地仰山 3室2厅 南/北,39.770087,3室2厅2卫,116.318055,https://m.lianjia.com/chuzu/bj/zufang/BJ2264448935391404032.html,117,7800,元/月,金地仰山,整租
5d1a130e38a4e51e8e5e27dd,1,2,新宫,北京,丰台,1004,南,1,集中供暖 随时看房,南庭新苑南区 2室1厅 南,39.809437,2室1厅1卫,116.374699,https://m.lianjia.com/chuzu/bj/zufang/BJ2285533099691614208.html,58,4600,元/月,南庭新苑南区,整租
5d1a1d7338a4e51e8e5e4ba9,2,2,奥林匹克公园,北京,昌平,295,东,2,近地铁 精装 双卫生间 随时看房,整租·天畅园 2室2厅 东,40.03926,2室2厅2卫,116.422621,https://m.lianjia.com/chuzu/bj/zufang/BJ2210879847730266112.html,168,16000,元/月,天畅园,整租
5d1a262138a4e51e8e5e64b7,1,2,枣园,北京,大兴,776,南 北,1,近地铁 集中供暖 随时看房,枣园北里 2室1厅 南/北,39.758883,2室1厅1卫,116.329607,https://m.lianjia.com/chuzu/bj/zufang/BJ2278746098090909696.html,72,4000,元/月,枣园北里,整租
5d1a206238a4e51e8e5e5621,1,2,西关环岛,北京,昌平,995,南 北,1,近地铁 集中供暖 随时看房,御路园 2室1厅 南/北,40.226052,2室1厅1卫,116.226162,https://m.lianjia.com/chuzu/bj/zufang/BJ2279416478363025408.html,93,4000,元/月,御路园,整租
5d1a2a4338a4e51e8e5e6fb1,1,2,顺义城,北京,顺义,221,南 北,1,近地铁 集中供暖,西辛南区 2室1厅 南/北,40.137571,2室1厅1卫,116.648422,https://m.lianjia.com/chuzu/bj/zufang/BJ2204999816855945216.html,38,3500,元/月,西辛南区,整租
5d1a17c138a4e51e8e5e37b5,3,4,潞苑,北京,通州,,南 北,1,,整租·中建红杉溪谷 4室1厅 南/北,39.948827,4室1厅3卫,116.706425,https://m.lianjia.com/chuzu/bj/zufang/BJ2267258232060264448.html,208,14000,元/月,中建红杉溪谷,整租
5d1a1e2238a4e51e8e5e4e17,1,2,昌平其它,北京,昌平,,南 北,1,集中供暖 随时看房,崔村教师楼 2室1厅 南/北,40.22522,2室1厅1卫,116.363195,https://m.lianjia.com/chuzu/bj/zufang/BJ2279716188009807872.html,108,3200,元/月,崔村教师楼,整租
5d1a0c9538a4e51e8e5e1191,2,3,知春路,北京,海淀,377,南 北,1,近地铁 精装 双卫生间,整租·锦秋知春 3室1厅 南/北,39.980297,3室1厅2卫,116.355878,https://m.lianjia.com/chuzu/bj/zufang/BJ2279458719895134208.html,149,21000,元/月,锦秋知春,整租
5d1a222b38a4e51e8e5e5b20,1,3,黄村中,北京,大兴,,南,1,,先锋公寓 3室1厅 南,39.745228,3室1厅1卫,116.35258,https://m.lianjia.com/chuzu/bj/zufang/BJ2258634607107260416.html,110,4600,元/月,先锋公寓,整租
5d1a17bb38a4e51e8e5e37a4,2,4,潞苑,北京,通州,,南 北,2,集中供暖 随时看房,新华联培训中心家属楼 4室2厅 南/北,39.937087,4室2厅2卫,116.677896,https://m.lianjia.com/chuzu/bj/zufang/BJ2274001573649072128.html,171,5200,元/月,新华联培训中心家属楼,整租
5d1a153b38a4e51e8e5e2f64,2,3,门头沟其它,北京,门头沟,196,东 南,1,集中供暖,西长安壹号 4房间 东/南,39.909783,4房间2卫,116.130421,https://m.lianjia.com/chuzu/bj/zufang/BJ2210669539463528448.html,69,6000,元/月,西长安壹号,整租
5d1a0de138a4e51e8e5e1600,2,3,菜户营,北京,丰台,,西南,1,集中供暖 新上 随时看房,鹏润家园 3室1厅 西南,39.875618,3室1厅2卫,116.35335,https://m.lianjia.com/chuzu/bj/zufang/BJ2257225067534483456.html,109,7000,元/月,鹏润家园,整租
5d1a288a38a4e51e8e5e69a1,1,2,后沙峪,北京,顺义,,南 北,1,集中供暖 新上 随时看房,双裕小区 2室1厅 南/北,40.112912,2室1厅1卫,116.561056,https://m.lianjia.com/chuzu/bj/zufang/BJ2286169204044603392.html,80,4700,元/月,双裕小区,整租
5d1a124438a4e51e8e5e2522,1,2,宋家庄,北京,丰台,762,东,1,近地铁 精装,整租·尚三环 3房间 东,39.855041,3房间1卫,116.439769,https://m.lianjia.com/chuzu/bj/zufang/BJ2252086761683959808.html,39,7200,元/月,尚三环,整租
5d1a162d38a4e51e8e5e3243,1,3,北关,北京,通州,,南 北,1,随时看房,新华北路59号院 3室1厅 南/北,39.923307,3室1厅1卫,116.661643,https://m.lianjia.com/chuzu/bj/zufang/BJ2278284799041085440.html,90,4200,元/月,新华北路59号院,整租
5d1a257b38a4e51e8e5e626d,1,2,郁花园,北京,大兴,187,南,1,近地铁 集中供暖 随时看房,整租·郁花园三里 2室1厅 南,39.775896,2室1厅1卫,116.34004,https://m.lianjia.com/chuzu/bj/zufang/BJ2279733059958087680.html,70,4800,元/月,郁花园三里,整租
5d1a1a3a38a4e51e8e5e4054,1,2,通州北苑,北京,通州,801,南 北,1,近地铁 随时看房,北苑1号院 2室1厅 南/北,39.914993,2室1厅1卫,116.648925,https://m.lianjia.com/chuzu/bj/zufang/BJ2284797384225456128.html,60,4000,元/月,北苑1号院,整租
5d1a094c38a4e51e8e5e066a,1,2,四季青,北京,海淀,,南,1,集中供暖 新上,西荣阁 3房间 南,39.946778,3房间1卫,116.286207,https://m.lianjia.com/chuzu/bj/zufang/BJ2282639198148370432.html,74,7800,元/月,西荣阁,整租
5d1a238438a4e51e8e5e5d9a,1,4,天宫院南,北京,大兴,,南 北,1,集中供暖,一品嘉园 4室1厅 南/北,39.676405,4室1厅1卫,116.423115,https://m.lianjia.com/chuzu/bj/zufang/BJ2219399954341314560.html,83,2800,元/月,一品嘉园,整租
5d1a174338a4e51e8e5e3608,1,3,九棵树(家乐福),北京,通州,,南 北,1,集中供暖 随时看房,整租·中泽家园 3室1厅 南/北,39.8809,3室1厅1卫,116.64484,https://m.lianjia.com/chuzu/bj/zufang/BJ2143144440166875136.html,76,4300,元/月,中泽家园,整租
5d1a0f4c38a4e51e8e5e1adc,1,3,旧宫,北京,大兴,,南 北,1,集中供暖 随时看房,清乐园 3室1厅 南/北,39.809427,3室1厅1卫,116.440269,https://m.lianjia.com/chuzu/bj/zufang/BJ2262034808488337408.html,75,4500,元/月,清乐园,整租
5d1a11b938a4e51e8e5e2344,1,1,马连道,北京,丰台,1025,南,1,近地铁 集中供暖 随时看房,整租·茶贸国际中心 2房间 南,39.888221,2房间1卫,116.335357,https://m.lianjia.com/chuzu/bj/zufang/BJ2279476031054151680.html,34,4000,元/月,茶贸国际中心,整租
5d1a13be38a4e51e8e5e2a38,1,1,永定门,北京,丰台,414,南,1,近地铁 精装 集中供暖 随时看房,整租·定安里 1室1厅 南,39.866651,1室1厅1卫,116.418443,https://m.lianjia.com/chuzu/bj/zufang/BJ2279429256100986880.html,39,4650,元/月,定安里,整租
5d1a1bf338a4e51e8e5e465d,1,2,万达,北京,通州,840,南 北,1,近地铁 集中供暖 新上,吉祥园 2室1厅 南/北,39.917767,2室1厅1卫,116.672015,https://m.lianjia.com/chuzu/bj/zufang/BJ2291193108861829120.html,73,4500,元/月,吉祥园,整租
5d1a16ab38a4e51e8e5e33f7,1,3,果园,北京,通州,788,南 北,1,近地铁 集中供暖 新上,整租·交通局家属院 3室1厅 南/北,39.897757,3室1厅1卫,116.645918,https://m.lianjia.com/chuzu/bj/zufang/BJ2289911133089300480.html,64,4000,元/月,交通局家属院,整租
5d1a137138a4e51e8e5e292f,2,3,玉泉营,北京,丰台,580,南 北,1,近地铁 集中供暖 双卫生间 随时看房,整租·万年花城三期 3室1厅 南/北,39.846371,3室1厅2卫,116.329405,https://m.lianjia.com/chuzu/bj/zufang/BJ2278696529227423744.html,120,9600,元/月,万年花城三期,整租
5d1a1ae938a4e51e8e5e42b6,1,3,武夷花园,北京,通州,,南 北,2,精装 集中供暖,整租·百合湾 3室2厅 南/北,39.920038,3室2厅1卫,116.697632,https://m.lianjia.com/chuzu/bj/zufang/BJ2146960511437381632.html,89,11000,元/月,百合湾,整租
5d1a2c1f38a4e51e8e5e75cf,2,3,长阳,北京,房山,,南 北,2,,碧桂园小区C区 3室2厅 跃层 南/北,39.767012,3室2厅2卫,116.175983,https://m.lianjia.com/chuzu/bj/zufang/BJ2254894935377444864.html,133,5000,元/月,碧桂园小区C区,整租
5d1a1c4f38a4e51e8e5e479c,1,3,亦庄,北京,亦庄开发区,,南 北,1,集中供暖 随时看房,小康家园 3室1厅 南/北,39.826956,3室1厅1卫,116.527591,https://m.lianjia.com/chuzu/bj/zufang/BJ2273927729370382336.html,100,5500,元/月,小康家园,整租
5d1a17de38a4e51e8e5e381c,1,1,潞苑,北京,通州,,南 北,1,集中供暖 随时看房,自然佳境 1室1厅 南/北,39.942109,1室1厅1卫,116.698943,https://m.lianjia.com/chuzu/bj/zufang/BJ2271469354296557568.html,68,3200,元/月,自然佳境,整租
5d1a113538a4e51e8e5e2175,2,3,马家堡,北京,丰台,360,东南,1,近地铁 精装 集中供暖 双卫生间,整租·瑞丽江畔 3室1厅 东南,39.850039,3室1厅2卫,116.380262,https://m.lianjia.com/chuzu/bj/zufang/BJ2279439878712737792.html,139,13000,元/月,瑞丽江畔,整租
5d1a0cdf38a4e51e8e5e128c,1,3,中关村,北京,海淀,666,东北,1,近地铁 集中供暖,新科祥园 3室1厅 东北,39.988995,3室1厅1卫,116.331062,https://m.lianjia.com/chuzu/bj/zufang/BJ2286271721315246080.html,96,18000,元/月,新科祥园,整租
5d1a127638a4e51e8e5e25cf,1,1,太平桥,北京,丰台,1,南 北,1,近地铁 集中供暖 随时看房,太平桥西里 1室1厅 南/北,39.890098,1室1厅1卫,116.320535,https://m.lianjia.com/chuzu/bj/zufang/BJ2276565882052550656.html,44,4600,元/月,太平桥西里,整租
5d1a197f38a4e51e8e5e3dcf,1,1,乔庄,北京,通州,1117,南,1,,整租·运乔嘉园 1室1厅 南,39.900316,1室1厅1卫,116.698085,https://m.lianjia.com/chuzu/bj/zufang/BJ2252060226109054976.html,73,3800,元/月,运乔嘉园,整租
5d1a1f4638a4e51e8e5e522e,1,1,回龙观,北京,昌平,,北,1,集中供暖 随时看房,东亚上北中心 2房间 北,40.087773,2房间1卫,116.347998,https://m.lianjia.com/chuzu/bj/zufang/BJ2262977251660537856.html,57,5300,元/月,东亚上北中心,整租
5d1a1c7538a4e51e8e5e4826,3,5,亦庄,北京,亦庄开发区,,南,2,集中供暖 随时看房,远洋天著二期 5室2厅 南,39.825274,5室2厅3卫,116.529448,https://m.lianjia.com/chuzu/bj/zufang/BJ2225203826955395072.html,260,15000,元/月,远洋天著二期,整租
5d1a115638a4e51e8e5e21ec,2,4,马家堡,北京,丰台,702,东北,2,近地铁 集中供暖 随时看房,7克拉 6房间 东北,39.845707,6房间2卫,116.391671,https://m.lianjia.com/chuzu/bj/zufang/BJ2278176099156901888.html,195,16000,元/月,7克拉,整租
5d1a204538a4e51e8e5e55ba,2,4,天通苑,北京,昌平,323,南 北,1,近地铁 集中供暖 双卫生间,整租·天通西苑一区 4室1厅 南/北,40.071881,4室1厅2卫,116.416531,https://m.lianjia.com/chuzu/bj/zufang/BJ2283832516056195072.html,185,13500,元/月,天通西苑一区,整租
5d1a1c0d38a4e51e8e5e46b6,1,2,亦庄,北京,亦庄开发区,,东北,1,集中供暖 随时看房,金色漫香林三期 2室1厅 东北,39.827384,2室1厅1卫,116.523423,https://m.lianjia.com/chuzu/bj/zufang/BJ2271865303984521216.html,67,5000,元/月,金色漫香林三期,整租
5d1a166b38a4e51e8e5e3319,1,2,大兴其它,北京,亦庄开发区,,南 北,1,,南海家园二里 2室1厅 南/北,39.768887,2室1厅1卫,116.496447,https://m.lianjia.com/chuzu/bj/zufang/BJ2255768913155997696.html,90,3600,元/月,南海家园二里,整租
5d1a0c4338a4e51e8e5e107a,2,3,玉泉路,北京,石景山,,南 北,2,集中供暖 双卫生间 随时看房,整租·田村山南路9号院 3室2厅 跃层 南/北,39.927685,3室2厅2卫,116.254547,https://m.lianjia.com/chuzu/bj/zufang/BJ2278811532655591424.html,115,7800,元/月,田村山南路9号院,整租
5d1a100338a4e51e8e5e1d58,2,3,科技园区,北京,大兴,,南,2,精装 集中供暖 双卫生间,整租·首开华润城 3室2厅 南,39.826669,3室2厅2卫,116.323534,https://m.lianjia.com/chuzu/bj/zufang/BJ2275839534673969152.html,141,13500,元/月,首开华润城,整租
5d1a204f38a4e51e8e5e55db,1,1,西关环岛,北京,昌平,645,南,1,近地铁 集中供暖,蓝郡国际花园 1室1厅 南,40.223852,1室1厅1卫,116.232119,https://m.lianjia.com/chuzu/bj/zufang/BJ2270308818431262720.html,53,3300,元/月,蓝郡国际花园,整租
5d1a0abb38a4e51e8e5e0b52,1,1,西三旗,北京,昌平,206,南,1,近地铁 集中供暖,文晟家园 1室1厅 南,40.056348,1室1厅1卫,116.358792,https://m.lianjia.com/chuzu/bj/zufang/BJ2265698631506206720.html,57,5500,元/月,文晟家园,整租
5d1a13b438a4e51e8e5e2a15,1,2,永定门,北京,丰台,277,南 北,1,近地铁 精装 集中供暖 新上,整租·革新里小区 2室1厅 南/北,39.873255,2室1厅1卫,116.403869,https://m.lianjia.com/chuzu/bj/zufang/BJ2289162241989689344.html,58,6000,元/月,革新里小区,整租
5d1a10a938a4e51e8e5e1f97,1,2,卢沟桥,北京,丰台,1178,南,1,集中供暖,整租·卢沟桥北里 2室1厅 南,39.856628,2室1厅1卫,116.238967,https://m.lianjia.com/chuzu/bj/zufang/BJ2258631424393617408.html,49,4500,元/月,卢沟桥北里,整租
5d1a29ce38a4e51e8e5e6e1b,1,1,顺义城,北京,顺义,753,南 北,2,近地铁 精装 集中供暖,整租·东兴二区 1室2厅 南/北,40.138289,1室2厅1卫,116.673001,https://m.lianjia.com/chuzu/bj/zufang/BJ2275373597571170304.html,84,3800,元/月,东兴二区,整租
5d1a174438a4e51e8e5e360a,6,5,九棵树(家乐福),北京,通州,,南 北,3,集中供暖 随时看房,世爵源墅 5室3厅 跃层 南/北,39.883682,5室3厅6卫,116.646457,https://m.lianjia.com/chuzu/bj/zufang/BJ2167949951919718400.html,335,26000,元/月,世爵源墅,整租
5d1a183138a4e51e8e5e393c,1,2,梨园,北京,通州,415,南 北,1,近地铁 集中供暖,五所家属院 2室1厅 南/北,39.891343,2室1厅1卫,116.671983,https://m.lianjia.com/chuzu/bj/zufang/BJ2283155263458648064.html,80,4000,元/月,五所家属院,整租
5d1a2be038a4e51e8e5e74f5,1,2,长阳,北京,房山,,西北,1,随时看房,碧桂园小区C区 2室1厅 西北,39.767012,2室1厅1卫,116.175983,https://m.lianjia.com/chuzu/bj/zufang/BJ2213749675335352320.html,92,2800,元/月,碧桂园小区C区,整租
5d1a2a5238a4e51e8e5e6fe4,1,1,顺义城,北京,顺义,,南 北,1,集中供暖,整租·石园北区 1室1厅 南/北,40.118729,1室1厅1卫,116.670101,https://m.lianjia.com/chuzu/bj/zufang/BJ2244944860215771136.html,70,3000,元/月,石园北区,整租
5d1a2ed238a4e51e8e5e7ef3,1,1,大峪,北京,门头沟,,南,0,集中供暖,高家园二路2号院 1室0厅 南,39.937025,1室0厅1卫,116.107341,https://m.lianjia.com/chuzu/bj/zufang/BJ2283136701314908160.html,44,2500,元/月,高家园二路2号院,整租
5d1a194438a4e51e8e5e3d04,1,1,马驹桥,北京,亦庄开发区,,北,1,集中供暖,合生世界花园 2房间 北,39.745913,2房间1卫,116.561925,https://m.lianjia.com/chuzu/bj/zufang/BJ2272955189071978496.html,58,3200,元/月,合生世界花园,整租
5d1a25fe38a4e51e8e5e643e,1,3,枣园,北京,大兴,59,南 北,1,近地铁 集中供暖 随时看房,枣园小区 3室1厅 南/北,39.757413,3室1厅1卫,116.334045,https://m.lianjia.com/chuzu/bj/zufang/BJ2180874897062887424.html,81,4500,元/月,枣园小区,整租
5d1a296b38a4e51e8e5e6cb9,1,2,马坡,北京,顺义,,南,1,集中供暖 新上,泰和谊园 2室1厅 南,40.185553,2室1厅1卫,116.654713,https://m.lianjia.com/chuzu/bj/zufang/BJ2288271961471852544.html,92,3600,元/月,泰和谊园,整租
5d1a2c5338a4e51e8e5e7684,1,2,长阳,北京,房山,1186,东,0,近地铁,半岛金街 2房间 东,39.759459,2房间1卫,116.219353,https://m.lianjia.com/chuzu/bj/zufang/BJ2244148064720273408.html,63,3800,元/月,半岛金街,整租
5d1a115338a4e51e8e5e21e0,1,2,马家堡,北京,丰台,282,南 北,2,近地铁 精装 随时看房,整租·益城园 2室2厅 南/北,39.839312,2室2厅1卫,116.372925,https://m.lianjia.com/chuzu/bj/zufang/BJ2265775411907018752.html,110,8200,元/月,益城园,整租
5d1a150138a4e51e8e5e2e99,1,1,门头沟其它,北京,门头沟,,南,1,集中供暖 随时看房,石泉砖厂B1区 1室1厅 南,39.952047,1室1厅1卫,116.088899,https://m.lianjia.com/chuzu/bj/zufang/BJ2243924134101000192.html,45,2100,元/月,石泉砖厂B1区,整租
5d1a2b3938a4e51e8e5e730d,1,1,顺义其它,北京,顺义,,南,1,集中供暖,东方太阳城 1室1厅 南,40.087052,1室1厅1卫,116.722221,https://m.lianjia.com/chuzu/bj/zufang/BJ2244631950524956672.html,72,3800,元/月,东方太阳城,整租
5d1a1a5738a4e51e8e5e40b9,1,3,通州其它,北京,亦庄开发区,,南 北,1,,润枫领尚 3室1厅 南/北,39.830621,3室1厅1卫,116.561289,https://m.lianjia.com/chuzu/bj/zufang/BJ2286043953050689536.html,88,4200,元/月,润枫领尚,整租
5d1a0d0138a4e51e8e5e12ff,1,3,紫竹桥,北京,海淀,213,东 南 北,1,近地铁 集中供暖 新上 随时看房,三虎桥南路12号院 3室1厅 东/南/北,39.940908,3室1厅1卫,116.322303,https://m.lianjia.com/chuzu/bj/zufang/BJ2289107452249251840.html,83,11000,元/月,三虎桥南路12号院,整租
5d1a0fdd38a4e51e8e5e1cd4,1,1,科技园区,北京,大兴,1139,东南,0,精装 集中供暖,整租·设计师广场 1室0厅 东南,39.844912,1室0厅1卫,116.291708,https://m.lianjia.com/chuzu/bj/zufang/BJ2281903810442174464.html,44,4200,元/月,设计师广场,整租
5d1a2e0338a4e51e8e5e7c6e,1,1,滨河西区,北京,门头沟,,南,1,集中供暖,熙旺中心 2房间 南,39.940869,2房间1卫,116.119726,https://m.lianjia.com/chuzu/bj/zufang/BJ2278043001693675520.html,66,4000,元/月,熙旺中心,整租
5d1a29ea38a4e51e8e5e6e7a,1,2,顺义城,北京,顺义,744,南 北,1,近地铁 集中供暖 随时看房,义宾北区 2室1厅 南/北,40.139222,2室1厅1卫,116.655265,https://m.lianjia.com/chuzu/bj/zufang/BJ2282673707657216000.html,56,3000,元/月,义宾北区,整租
5d1a137138a4e51e8e5e2931,1,2,玉泉营,北京,丰台,415,东 南,1,近地铁 精装 集中供暖,整租·万年花城四期 2室1厅 东/南,39.852545,2室1厅1卫,116.321999,https://m.lianjia.com/chuzu/bj/zufang/BJ2278931018746699776.html,88,7800,元/月,万年花城四期,整租
5d1a16d738a4e51e8e5e3492,1,2,果园,北京,通州,526,南 北,1,近地铁 集中供暖,葛布店北里 2室1厅 南/北,39.899598,2室1厅1卫,116.66424,https://m.lianjia.com/chuzu/bj/zufang/BJ2243936578080604160.html,60,3800,元/月,葛布店北里,整租
5d1a092938a4e51e8e5e05f2,2,2,四季青,北京,海淀,861,南 北,2,近地铁 集中供暖 新上 随时看房,颐慧佳园 2室2厅 南/北,39.942343,2室2厅2卫,116.294131,https://m.lianjia.com/chuzu/bj/zufang/BJ2286791947526086656.html,121,11500,元/月,颐慧佳园,整租
5d1a1b3438a4e51e8e5e43bb,1,3,武夷花园,北京,通州,,南 北,1,集中供暖 随时看房,京贸国际城西区 3室1厅 南/北,39.925159,3室1厅1卫,116.690996,https://m.lianjia.com/chuzu/bj/zufang/BJ2211429243303501824.html,128,6500,元/月,京贸国际城西区,整租
5d1a187f38a4e51e8e5e3a4e,1,1,临河里,北京,通州,392,南,0,近地铁 集中供暖 随时看房,整租·方恒东景 1室0厅 南,39.877962,1室0厅1卫,116.694868,https://m.lianjia.com/chuzu/bj/zufang/BJ2202763829912272896.html,55,3500,元/月,方恒东景,整租
5d1a2c9e38a4e51e8e5e7792,1,1,长阳,北京,房山,,东,0,集中供暖 随时看房,绿地启航社 1房间 东,39.763393,1房间1卫,116.166915,https://m.lianjia.com/chuzu/bj/zufang/BJ2243241486966079488.html,55,2700,元/月,绿地启航社,整租
5d1a2f6338a4e51e8e5e8068,1,1,石门营,北京,门头沟,175,南,1,近地铁 随时看房,紫金新园二区 1室1厅 南,39.895301,1室1厅1卫,116.118754,https://m.lianjia.com/chuzu/bj/zufang/BJ2238959160446697472.html,45,2300,元/月,紫金新园二区,整租
5d1a0aff38a4e51e8e5e0c3b,1,2,西三旗,北京,昌平,206,南 北,1,近地铁 集中供暖,文晟家园 2室1厅 南/北,40.056348,2室1厅1卫,116.358792,https://m.lianjia.com/chuzu/bj/zufang/BJ2267829086355734528.html,86,7500,元/月,文晟家园,整租
5d1a10fe38a4e51e8e5e20b7,2,2,马家堡,北京,丰台,412,南 北,1,近地铁 新上,左右坊 2室1厅 复式 南/北,39.847498,2室1厅2卫,116.377942,https://m.lianjia.com/chuzu/bj/zufang/BJ2288896632110194688.html,90,7600,元/月,左右坊,整租
5d1a130238a4e51e8e5e27b2,1,2,西罗园,北京,丰台,696,南 北,1,近地铁 精装 集中供暖 随时看房,整租·西罗园南里 2室1厅 南/北,39.861922,2室1厅1卫,116.398566,https://m.lianjia.com/chuzu/bj/zufang/BJ2286135761701453824.html,62,5500,元/月,西罗园南里,整租
5d1a165538a4e51e8e5e32cf,1,1,大兴其它,北京,亦庄开发区,,南,1,集中供暖 新上,南海家园七里 1室1厅 南,39.763006,1室1厅1卫,116.500512,https://m.lianjia.com/chuzu/bj/zufang/BJ2283280170460643328.html,62,3300,元/月,南海家园七里,整租
5d1a1d0038a4e51e8e5e4a24,2,3,玉桥,北京,通州,,南 北,2,集中供暖,远洋东方公馆 3室2厅 南/北,39.895533,3室2厅2卫,116.683292,https://m.lianjia.com/chuzu/bj/zufang/BJ2282521363036520448.html,173,8800,元/月,远洋东方公馆,整租
5d1a1e3d38a4e51e8e5e4e78,0,1,东关,北京,昌平,1071,南,1,集中供暖 随时看房,整租·清秀园南区 1室1厅 南,40.221791,1室1厅0卫,116.249496,https://m.lianjia.com/chuzu/bj/zufang/BJ2278751550099177472.html,50,3100,元/月,清秀园南区,整租
5d1a095138a4e51e8e5e067a,1,1,四季青,北京,海淀,,北,1,集中供暖,西荣阁 2房间 北,39.946778,2房间1卫,116.286207,https://m.lianjia.com/chuzu/bj/zufang/BJ2282467235090415616.html,45,6000,元/月,西荣阁,整租
5d1a13ea38a4e51e8e5e2ad1,1,2,赵公口,北京,丰台,658,东 北,1,近地铁 集中供暖 随时看房,彩虹城一区 2室1厅 东/北,39.845641,2室1厅1卫,116.423095,https://m.lianjia.com/chuzu/bj/zufang/BJ2278742846364188672.html,83,6000,元/月,彩虹城一区,整租
5d1a0ad938a4e51e8e5e0bb7,1,1,西三旗,北京,昌平,,南 北,1,集中供暖 随时看房,常秀家园 1室1厅 南/北,40.060932,1室1厅1卫,116.337434,https://m.lianjia.com/chuzu/bj/zufang/BJ2276461510413271040.html,55,4500,元/月,常秀家园,整租
5d1a206638a4e51e8e5e5630,1,1,西关环岛,北京,昌平,795,西,1,,城角西路 1室1厅 西,40.222961,1室1厅1卫,116.23002,https://m.lianjia.com/chuzu/bj/zufang/BJ2279612134440566784.html,45,2700,元/月,城角西路,整租
5d1a2f4938a4e51e8e5e8007,1,3,石门营,北京,门头沟,415,南,1,近地铁 新上,紫金新园三区 3室1厅 南,39.892679,3室1厅1卫,116.122277,https://m.lianjia.com/chuzu/bj/zufang/BJ2289026528857554944.html,85,3300,元/月,紫金新园三区,整租
5d1a1aab38a4e51e8e5e41db,1,3,武夷花园,北京,通州,,南 北,1,集中供暖 新上,武夷花园综合楼 3室1厅 南/北,39.923933,3室1厅1卫,116.706651,https://m.lianjia.com/chuzu/bj/zufang/BJ2290606921466003456.html,116,5000,元/月,武夷花园综合楼,整租
5d1a287238a4e51e8e5e694a,2,3,后沙峪,北京,顺义,571,南 北,1,近地铁 集中供暖 双卫生间,整租·蓝星花园 3室1厅 南/北,40.094933,3室1厅2卫,116.560389,https://m.lianjia.com/chuzu/bj/zufang/BJ2197105971489144832.html,124,5800,元/月,蓝星花园,整租
5d1a2d2b38a4e51e8e5e7978,1,3,良乡,北京,房山,,东 西,1,集中供暖 随时看房,整租·西潞北大街二中家属楼 3室1厅 东/西,39.740746,3室1厅1卫,116.143192,https://m.lianjia.com/chuzu/bj/zufang/BJ2260869088169697280.html,93,3000,元/月,西潞北大街二中家属楼,整租
5d1a0ddc38a4e51e8e5e15ed,1,2,菜户营,北京,丰台,,南 北,1,集中供暖,万润风景 2室1厅 南/北,39.86288,2室1厅1卫,116.34581,https://m.lianjia.com/chuzu/bj/zufang/BJ2189767898791419904.html,89,6800,元/月,万润风景,整租
5d1a0cb038a4e51e8e5e11e9,2,4,皂君庙,北京,海淀,826,东南 北,2,近地铁 集中供暖 随时看房,四道口5号院 4室2厅 东南/北,39.967331,4室2厅2卫,116.349185,https://m.lianjia.com/chuzu/bj/zufang/BJ2279594890063527936.html,157,23000,元/月,四道口5号院,整租
5d1a2f4b38a4e51e8e5e800b,1,1,石门营,北京,门头沟,671,南 北,1,近地铁,石门营新区七区北苑 1室1厅 南/北,39.893562,1室1厅1卫,116.11309,https://m.lianjia.com/chuzu/bj/zufang/BJ2265844848063938560.html,47,2500,元/月,石门营新区七区北苑,整租
5d1a1efc38a4e51e8e5e5123,2,3,回龙观,北京,昌平,,南 北,2,精装 集中供暖 双卫生间 随时看房,整租·龙城花园中五区 3室2厅 南/北,40.089838,3室2厅2卫,116.305645,https://m.lianjia.com/chuzu/bj/zufang/BJ2278898926801666048.html,128,10000,元/月,龙城花园中五区,整租
5d1a2b6038a4e51e8e5e7399,2,4,顺义其它,北京,顺义,,南 北,2,集中供暖,中国铁建顺鑫汇 6房间 南/北,40.093026,6房间2卫,116.671838,https://m.lianjia.com/chuzu/bj/zufang/BJ2282370118086836224.html,66,4000,元/月,中国铁建顺鑫汇,整租
5d1a1bed38a4e51e8e5e4648,0,3,万达,北京,通州,360,西北,2,近地铁,万达广场 5房间 西北,39.912093,5房间0卫,116.64745,https://m.lianjia.com/chuzu/bj/zufang/BJ2277387251144982528.html,213,35000,元/月,万达广场,整租
5d1a2cc738a4e51e8e5e781c,1,2,良乡,北京,房山,,南 北,1,随时看房,整租·西潞园一里 2室1厅 南/北,39.739245,2室1厅1卫,116.137293,https://m.lianjia.com/chuzu/bj/zufang/BJ2264278765222248448.html,53,2100,元/月,西潞园一里,整租
5d1a157838a4e51e8e5e303d,1,1,苹果园,北京,石景山,,南,1,,西山麓园 1室1厅 南,39.945365,1室1厅1卫,116.190759,https://m.lianjia.com/chuzu/bj/zufang/BJ2280403300870529024.html,50,4500,元/月,西山麓园,整租
5d1a0c3838a4e51e8e5e1057,1,2,杨庄,北京,石景山,949,南,1,近地铁 集中供暖 新上,古城地铁车辆段 2室1厅 南,39.926618,2室1厅1卫,116.193689,https://m.lianjia.com/chuzu/bj/zufang/BJ2288127436594364416.html,59,4500,元/月,古城地铁车辆段,整租
5d1a147538a4e51e8e5e2cb1,1,2,鲁谷,北京,石景山,636,东,1,近地铁 集中供暖 新上 随时看房,远洋山水 2室1厅 东,39.906426,2室1厅1卫,116.247008,https://m.lianjia.com/chuzu/bj/zufang/BJ2290614505497174016.html,97,8500,元/月,远洋山水,整租
5d1a123438a4e51e8e5e24ea,1,1,宋家庄,北京,丰台,642,东,0,近地铁 精装 新上 随时看房,整租·政馨园一区 1室0厅 东,39.854215,1室0厅1卫,116.438762,https://m.lianjia.com/chuzu/bj/zufang/BJ2284636600229445632.html,27,4300,元/月,政馨园一区,整租
5d1a0b3438a4e51e8e5e0cef,1,1,西北旺,北京,海淀,551,南,1,近地铁 精装 新上,整租·秋露园 1室1厅 南,40.058003,1室1厅1卫,116.268991,https://m.lianjia.com/chuzu/bj/zufang/BJ2288399233079836672.html,56,6000,元/月,秋露园,整租
5d1a1b5338a4e51e8e5e442a,1,1,武夷花园,北京,通州,,北,1,集中供暖 随时看房,百合湾 2房间 跃层 北,39.920038,2房间1卫,116.697632,https://m.lianjia.com/chuzu/bj/zufang/BJ2257178530046033920.html,30,4000,元/月,百合湾,整租
5d1a1c0538a4e51e8e5e469d,1,1,亦庄,北京,亦庄开发区,682,南,0,近地铁 集中供暖 随时看房,北京经开壹中心 1室0厅 南,39.784679,1室0厅1卫,116.561137,https://m.lianjia.com/chuzu/bj/zufang/BJ2279413601775665152.html,44,4000,元/月,北京经开壹中心,整租
5d1a115138a4e51e8e5e21d9,1,3,马家堡,北京,丰台,147,西南 北,1,近地铁 集中供暖 随时看房,时代风帆大厦 4房间 西南/北,39.852595,4房间1卫,116.376649,https://m.lianjia.com/chuzu/bj/zufang/BJ2282490170164903936.html,154,18000,元/月,时代风帆大厦,整租
5d1a2c1438a4e51e8e5e75a8,1,2,长阳,北京,房山,,南 北,1,集中供暖 随时看房,首创新悦都 2室1厅 南/北,39.778845,2室1厅1卫,116.192392,https://m.lianjia.com/chuzu/bj/zufang/BJ2284808596648894464.html,75,3500,元/月,首创新悦都,整租
5d1a1d5938a4e51e8e5e4b55,2,3,奥林匹克公园,北京,昌平,697,东 西,2,近地铁,上元君庭 3室2厅 东/西,40.031546,3室2厅2卫,116.419162,https://m.lianjia.com/chuzu/bj/zufang/BJ2271500759298482176.html,145,15500,元/月,上元君庭,整租
5d1a1b9338a4e51e8e5e450c,2,3,万达,北京,通州,,南 北,2,,京杭府 3室2厅 南/北,39.914808,3室2厅2卫,116.66464,https://m.lianjia.com/chuzu/bj/zufang/BJ2263724096619814912.html,182,13000,元/月,京杭府,整租
5d1a11df38a4e51e8e5e23c6,1,2,青塔,北京,丰台,,南 北,1,精装,整租·兆丰馨园 2室1厅 南/北,39.896741,2室1厅1卫,116.252995,https://m.lianjia.com/chuzu/bj/zufang/BJ2270160265829941248.html,100,7600,元/月,兆丰馨园,整租
5d1a122e38a4e51e8e5e24d5,2,3,七里庄,北京,丰台,427,南 北,1,近地铁 集中供暖 双卫生间,整租·鼎恒中心 3室1厅 南/北,39.87311,3室1厅2卫,116.306969,https://m.lianjia.com/chuzu/bj/zufang/BJ2246803689924722688.html,164,12500,元/月,鼎恒中心,整租
5d1a1d9938a4e51e8e5e4c2f,2,2,安宁庄,北京,昌平,,南 北,1,精装 集中供暖 双卫生间,整租·上林溪 2室1厅 南/北,40.051652,2室1厅2卫,116.331754,https://m.lianjia.com/chuzu/bj/zufang/BJ2282481652246781952.html,98,8500,元/月,上林溪,整租
5d1a2de238a4e51e8e5e7bfa,1,2,滨河西区,北京,门头沟,,南 北,1,集中供暖,永兴小区 2室1厅 南/北,39.918834,2室1厅1卫,116.121948,https://m.lianjia.com/chuzu/bj/zufang/BJ2217332860460220416.html,75,2500,元/月,永兴小区,整租
5d1a217d38a4e51e8e5e58b3,3,5,高米店南,北京,大兴,378,南 西 北,2,近地铁 精装,整租·兴创屹墅 5室2厅 南/西/北,39.773896,5室2厅3卫,116.343751,https://m.lianjia.com/chuzu/bj/zufang/BJ2282490856655298560.html,332,28000,元/月,兴创屹墅,整租
5d1a1b5738a4e51e8e5e4436,1,2,武夷花园,北京,通州,,东,1,集中供暖,百合湾 3房间 跃层 东,39.920038,3房间1卫,116.697632,https://m.lianjia.com/chuzu/bj/zufang/BJ2260592567068663808.html,37,4500,元/月,百合湾,整租
5d1a2d4138a4e51e8e5e79c6,1,2,良乡,北京,房山,,南 北,1,,整租·西潞东里社区 2室1厅 南/北,39.739383,2室1厅1卫,116.141421,https://m.lianjia.com/chuzu/bj/zufang/BJ2283231832785305600.html,119,2800,元/月,西潞东里社区,整租
5d1a2a2838a4e51e8e5e6f54,1,2,顺义城,北京,顺义,753,南 北,1,近地铁 集中供暖,整租·东兴二区 2室1厅 南/北,40.138289,2室1厅1卫,116.673001,https://m.lianjia.com/chuzu/bj/zufang/BJ2278168252679471104.html,85,4000,元/月,东兴二区,整租
5d1a1b2138a4e51e8e5e4377,2,3,武夷花园,北京,通州,319,东 南 北,1,近地铁 集中供暖,富力运河十号 3室1厅 东/南/北,39.910567,3室1厅2卫,116.692994,https://m.lianjia.com/chuzu/bj/zufang/BJ2276560606423695360.html,152,11000,元/月,富力运河十号,整租
5d1a1b3a38a4e51e8e5e43d0,1,1,武夷花园,北京,通州,,南,0,,上营新村 1室0厅 南,39.910318,1室0厅1卫,116.687591,https://m.lianjia.com/chuzu/bj/zufang/BJ2277474552605057024.html,40,3300,元/月,上营新村,整租
5d1a09dc38a4e51e8e5e085a,2,3,五道口,北京,海淀,385,南 西,1,近地铁 集中供暖,东升园 3室1厅 南/西,39.995202,3室1厅2卫,116.343804,https://m.lianjia.com/chuzu/bj/zufang/BJ2284064394998988800.html,178,22000,元/月,东升园,整租
5d1a14cb38a4e51e8e5e2ddd,2,3,鲁谷,北京,石景山,,西南,1,集中供暖,重兴嘉园 3室1厅 西南,39.897509,3室1厅2卫,116.236947,https://m.lianjia.com/chuzu/bj/zufang/BJ2225323746627944448.html,123,8000,元/月,重兴嘉园,整租
5d1a1ebe38a4e51e8e5e5044,1,3,回龙观,北京,昌平,798,南 北,1,近地铁 随时看房,龙博苑三区 3室1厅 南/北,40.072433,3室1厅1卫,116.351354,https://m.lianjia.com/chuzu/bj/zufang/BJ2278225721455550464.html,87,7200,元/月,龙博苑三区,整租
5d1a0ee838a4e51e8e5e1986,2,3,花乡,北京,丰台,,南 北,1,集中供暖 新上,银地家园 3室1厅 南/北,39.82826,3室1厅2卫,116.339882,https://m.lianjia.com/chuzu/bj/zufang/BJ2289706415864430592.html,134,10000,元/月,银地家园,整租
5d1a0cb538a4e51e8e5e11fc,1,2,皂君庙,北京,海淀,,西,1,集中供暖,学院派 3房间 西,39.964464,3房间1卫,116.359358,https://m.lianjia.com/chuzu/bj/zufang/BJ2282557312012910592.html,89,10500,元/月,学院派,整租
5d1a257838a4e51e8e5e6260,1,2,郁花园,北京,大兴,336,南 北,1,近地铁 集中供暖 新上,郁花园二里 2室1厅 南/北,39.781801,2室1厅1卫,116.339906,https://m.lianjia.com/chuzu/bj/zufang/BJ2288272592529784832.html,74,4500,元/月,郁花园二里,整租
5d1a0c5138a4e51e8e5e10aa,1,2,玉泉路,北京,石景山,310,南 北,1,近地铁 集中供暖,铁建大院 2室1厅 南/北,39.911381,2室1厅1卫,116.262428,https://m.lianjia.com/chuzu/bj/zufang/BJ2284811175483154432.html,67,6800,元/月,铁建大院,整租
5d1a0e5838a4e51e8e5e1799,1,1,方庄,北京,丰台,258,南 北,1,近地铁 集中供暖 随时看房,城市芳庭 1室1厅 南/北,39.870968,1室1厅1卫,116.44339,https://m.lianjia.com/chuzu/bj/zufang/BJ2278836134605750272.html,73,6300,元/月,城市芳庭,整租
5d1a2ca038a4e51e8e5e7798,2,2,长阳,北京,房山,353,西南,1,近地铁 精装 集中供暖 双卫生间 随时看房,整租·首开熙悦广场 3房间 西南,39.767727,3房间2卫,116.21711,https://m.lianjia.com/chuzu/bj/zufang/BJ2107869442976792576.html,82,6200,元/月,首开熙悦广场,整租
5d1a215438a4e51e8e5e5827,1,2,观音寺,北京,大兴,,南 北,1,集中供暖 随时看房,观音寺南里 2室1厅 南/北,39.728719,2室1厅1卫,116.35625,https://m.lianjia.com/chuzu/bj/zufang/BJ2208400708921991168.html,71,3000,元/月,观音寺南里,整租
5d1a0c8c38a4e51e8e5e1170,1,2,知春路,北京,海淀,724,南,1,近地铁 集中供暖,整租·太阳园 2室1厅 南,39.976432,2室1厅1卫,116.347797,https://m.lianjia.com/chuzu/bj/zufang/BJ2274398607900164096.html,109,13500,元/月,太阳园,整租
5d1a178738a4e51e8e5e36f1,1,2,潞苑,北京,通州,,南 北,1,集中供暖,中建雅颂居 2室1厅 南/北,39.946905,2室1厅1卫,116.705966,https://m.lianjia.com/chuzu/bj/zufang/BJ2275182965405794304.html,89,3800,元/月,中建雅颂居,整租
5d1a09ff38a4e51e8e5e08cf,1,2,五棵松,北京,海淀,507,南 北,1,近地铁 精装 集中供暖 随时看房,整租·永定路70号院 2室1厅 南/北,39.915936,2室1厅1卫,116.272892,https://m.lianjia.com/chuzu/bj/zufang/BJ2282535338238803968.html,59,6800,元/月,永定路70号院,整租
5d1a2cc238a4e51e8e5e7807,1,2,良乡,北京,房山,980,东 西,1,近地铁,整租·西潞昊宏家园 2室1厅 东/西,39.734501,2室1厅1卫,116.143267,https://m.lianjia.com/chuzu/bj/zufang/BJ2275157411801612288.html,81,2700,元/月,西潞昊宏家园,整租
5d1a199238a4e51e8e5e3e13,1,2,乔庄,北京,通州,864,东南,1,精装 随时看房,整租·博客园 2室1厅 东南,39.903498,2室1厅1卫,116.696742,https://m.lianjia.com/chuzu/bj/zufang/BJ2225072492970778624.html,95,4800,元/月,博客园,整租
5d1a219638a4e51e8e5e590d,3,5,高米店南,北京,大兴,141,南 北,3,近地铁,新里西斯莱公馆 5室3厅 南/北,39.770444,5室3厅3卫,116.344335,https://m.lianjia.com/chuzu/bj/zufang/BJ2273607718277488640.html,405,50000,元/月,新里西斯莱公馆,整租
5d1a0fe438a4e51e8e5e1ceb,2,3,科技园区,北京,大兴,,南 北,2,精装 双卫生间,整租·亿城天筑 3室2厅 南/北,39.827336,3室2厅2卫,116.319336,https://m.lianjia.com/chuzu/bj/zufang/BJ2282614310540673024.html,129,9000,元/月,亿城天筑,整租
5d1a2d9f38a4e51e8e5e7b14,2,3,阎村,北京,房山,,南 北,2,随时看房,绿城百合公寓叠翠苑 3室2厅 南/北,39.718832,3室2厅2卫,116.077605,https://m.lianjia.com/chuzu/bj/zufang/BJ2253604482397519872.html,132,4000,元/月,绿城百合公寓叠翠苑,整租
5d1a0dc138a4e51e8e5e1590,2,5,草桥,北京,丰台,630,南 北,2,近地铁 精装 集中供暖 双卫生间,整租·玺萌公馆 5室2厅 南/北,39.847982,5室2厅2卫,116.370049,https://m.lianjia.com/chuzu/bj/zufang/BJ2228816876321120256.html,213,21800,元/月,玺萌公馆,整租
5d1a2c8538a4e51e8e5e7737,1,1,长阳,北京,房山,263,西北,0,集中供暖 随时看房,FCC中央城 1房间 西北,39.770818,1房间1卫,116.217685,https://m.lianjia.com/chuzu/bj/zufang/BJ2278811532353601536.html,45,3700,元/月,FCC中央城,整租
5d1a11ef38a4e51e8e5e23f9,1,2,青塔,北京,丰台,,南,1,集中供暖 随时看房,广安﹒康馨家园 2室1厅 南,39.88187,2室1厅1卫,116.235582,https://m.lianjia.com/chuzu/bj/zufang/BJ2269558835998105600.html,78,4700,元/月,广安﹒康馨家园,整租
5d1a17ab38a4e51e8e5e376b,2,3,潞苑,北京,通州,,南 北,1,集中供暖 双卫生间 随时看房,整租·新潮嘉园三期 3室1厅 南/北,39.940934,3室1厅2卫,116.706256,https://m.lianjia.com/chuzu/bj/zufang/BJ2071618192681476096.html,117,4000,元/月,新潮嘉园三期,整租
5d1a2c0d38a4e51e8e5e7591,1,2,长阳,北京,房山,1160,南,2,精装 集中供暖,整租·徜徉嘉园5号院 2室2厅 南,39.763439,2室2厅1卫,116.211555,https://m.lianjia.com/chuzu/bj/zufang/BJ2277519015188905984.html,91,5000,元/月,徜徉嘉园5号院,整租
5d1a2aa338a4e51e8e5e7102,1,2,顺义城,北京,顺义,217,南 北,1,近地铁 集中供暖,整租·东兴一区 2室1厅 南/北,40.137772,2室1厅1卫,116.6709,https://m.lianjia.com/chuzu/bj/zufang/BJ2237682325792505856.html,88,4200,元/月,东兴一区,整租
5d1a193738a4e51e8e5e3cd6,1,2,马驹桥,北京,亦庄开发区,,南 北,1,集中供暖 随时看房,新海北里 2室1厅 南/北,39.763889,2室1厅1卫,116.547986,https://m.lianjia.com/chuzu/bj/zufang/BJ2268617952930832384.html,70,3650,元/月,新海北里,整租
5d1a133738a4e51e8e5e2867,3,3,岳各庄,北京,丰台,,南 北,2,精装 集中供暖,整租·中堂 3室2厅 南/北,39.88699,3室2厅3卫,116.28537,https://m.lianjia.com/chuzu/bj/zufang/BJ2198321643032952832.html,181,14000,元/月,中堂,整租
5d1a1a6e38a4e51e8e5e4107,2,4,通州其它,北京,亦庄开发区,,南 北,2,随时看房,盛通绿色家园 4室2厅 南/北,39.999463,4室2厅2卫,116.686474,https://m.lianjia.com/chuzu/bj/zufang/BJ2283807917008764928.html,192,10000,元/月,盛通绿色家园,整租
5d1a0b2f38a4e51e8e5e0cdf,2,3,西北旺,北京,海淀,809,南 北,2,精装 集中供暖 双卫生间,整租·西山壹号院 3室2厅 南/北,40.046164,3室2厅2卫,116.275723,https://m.lianjia.com/chuzu/bj/zufang/BJ2156951604107427840.html,181,25000,元/月,西山壹号院,整租
5d1a166a38a4e51e8e5e3317,1,3,大兴其它,北京,亦庄开发区,,南 西,1,,南海家园七里 3室1厅 南/西,39.763006,3室1厅1卫,116.500512,https://m.lianjia.com/chuzu/bj/zufang/BJ2207834118069698560.html,99,4800,元/月,南海家园七里,整租
5d1a0eea38a4e51e8e5e198e,1,1,花乡,北京,丰台,,南,0,随时看房,天伦锦城 1室0厅 南,39.82227,1室0厅1卫,116.340929,https://m.lianjia.com/chuzu/bj/zufang/BJ2235229704086880256.html,48,4000,元/月,天伦锦城,整租
5d1a0bc638a4e51e8e5e0ed6,1,3,西直门,北京,海淀,712,南 北,1,近地铁 集中供暖,德胜门西大街74号 3室1厅 南/北,39.950382,3室1厅1卫,116.366797,https://m.lianjia.com/chuzu/bj/zufang/BJ2262242052546756608.html,76,12000,元/月,德胜门西大街74号,整租
5d1a09aa38a4e51e8e5e07a9,1,2,五道口,北京,海淀,236,南 北,1,近地铁 集中供暖 新上,整租·东王庄 2室1厅 南/北,40.004589,2室1厅1卫,116.347007,https://m.lianjia.com/chuzu/bj/zufang/BJ2288414826797465600.html,66,9600,元/月,东王庄,整租
5d1a1b4738a4e51e8e5e43ff,1,2,武夷花园,北京,通州,,东北,2,集中供暖 新上 随时看房,百合湾 4房间 复式 东北,39.920038,4房间1卫,116.697632,https://m.lianjia.com/chuzu/bj/zufang/BJ2289586931761692672.html,30,4200,元/月,百合湾,整租
5d1a2c8c38a4e51e8e5e7750,2,2,长阳,北京,房山,769,西南,1,精装 集中供暖 双卫生间,整租·五和万科长阳天地 3房间 西南,39.773936,3房间2卫,116.194021,https://m.lianjia.com/chuzu/bj/zufang/BJ2108581463384662016.html,62,4500,元/月,五和万科长阳天地,整租
5d1a2c8d38a4e51e8e5e7754,1,1,长阳,北京,房山,,南,0,集中供暖,整租·绿地启航社 1房间 南,39.763393,1房间1卫,116.166915,https://m.lianjia.com/chuzu/bj/zufang/BJ2257732046456111104.html,55,2600,元/月,绿地启航社,整租
5d1a2a5d38a4e51e8e5e700d,2,3,顺义城,北京,顺义,450,南,1,近地铁 集中供暖,前进花园牡丹苑 3室1厅 南,40.139456,3室1厅2卫,116.643868,https://m.lianjia.com/chuzu/bj/zufang/BJ2282554390394961920.html,117,6500,元/月,前进花园牡丹苑,整租
5d1a1ab538a4e51e8e5e4202,1,2,武夷花园,北京,通州,947,东南,1,集中供暖 新上 随时看房,西上园老三区 2室1厅 东南,39.907824,2室1厅1卫,116.686389,https://m.lianjia.com/chuzu/bj/zufang/BJ2287724382912782336.html,68,4000,元/月,西上园老三区,整租
5d1a101e38a4e51e8e5e1db9,2,3,科技园区,北京,大兴,1155,南 北,2,近地铁 精装 双卫生间 随时看房,整租·泽信公馆 3室2厅 南/北,39.845229,3室2厅2卫,116.289273,https://m.lianjia.com/chuzu/bj/zufang/BJ2163532510720696320.html,143,15000,元/月,泽信公馆,整租
5d1a1d7238a4e51e8e5e4ba7,3,3,奥林匹克公园,北京,昌平,,南 北,2,随时看房,整租·澳景花庭 3室2厅 南/北,40.022013,3室2厅3卫,116.371815,https://m.lianjia.com/chuzu/bj/zufang/BJ2275366671500197888.html,181,16000,元/月,澳景花庭,整租
5d1a0d5538a4e51e8e5e141c,1,1,北大地,北京,丰台,745,东 西,1,近地铁 精装 集中供暖 随时看房,整租·北大地二里 1室1厅 东/西,39.861841,1室1厅1卫,116.290855,https://m.lianjia.com/chuzu/bj/zufang/BJ2265049574051946496.html,54,5600,元/月,北大地二里,整租
5d1a1ed138a4e51e8e5e5088,1,2,回龙观,北京,昌平,,南,1,集中供暖,整租·融泽嘉园 2室1厅 南,40.074203,2室1厅1卫,116.315445,https://m.lianjia.com/chuzu/bj/zufang/BJ2260202157074817024.html,88,6500,元/月,融泽嘉园,整租
5d1a0cf338a4e51e8e5e12d0,1,3,中关村,北京,海淀,666,南 北,1,近地铁 集中供暖,新科祥园 3室1厅 南/北,39.988995,3室1厅1卫,116.331062,https://m.lianjia.com/chuzu/bj/zufang/BJ2273036771078184960.html,106,23500,元/月,新科祥园,整租
5d1a0ba538a4e51e8e5e0e67,1,2,西直门,北京,海淀,,西,1,精装 新上,整租·危改小区 2室1厅 西,39.952108,2室1厅1卫,116.360876,https://m.lianjia.com/chuzu/bj/zufang/BJ2289883182969405440.html,74,8800,元/月,危改小区,整租
5d1a1b3038a4e51e8e5e43af,1,2,武夷花园,北京,通州,,南 北,2,集中供暖,整租·荔景园 2室2厅 南/北,39.91852,2室2厅1卫,116.709828,https://m.lianjia.com/chuzu/bj/zufang/BJ2189676217497042944.html,91,4500,元/月,荔景园,整租
5d1a115d38a4e51e8e5e2203,1,1,马家堡,北京,丰台,225,北,1,近地铁 集中供暖 随时看房,城南大道 2房间 北,39.838257,2房间1卫,116.375715,https://m.lianjia.com/chuzu/bj/zufang/BJ2233974600248082432.html,51,11500,元/月,城南大道,整租
5d1a175238a4e51e8e5e363c,1,2,九棵树(家乐福),北京,通州,,南 北,1,精装,整租·阿尔法社区 2室1厅 南/北,39.879142,2室1厅1卫,116.652458,https://m.lianjia.com/chuzu/bj/zufang/BJ2239908198054100992.html,90,4500,元/月,阿尔法社区,整租
5d1a1aa638a4e51e8e5e41cb,2,2,武夷花园,北京,通州,1058,南 北,2,集中供暖 新上,BOBO自由城 2室2厅 南/北,39.914747,2室2厅2卫,116.700632,https://m.lianjia.com/chuzu/bj/zufang/BJ2290459317641953280.html,108,7500,元/月,BOBO自由城,整租
5d1a1a0c38a4e51e8e5e3fb5,2,3,通州北苑,北京,通州,587,东 南 北,2,近地铁 集中供暖 随时看房,京贸国际公寓 3室2厅 东/南/北,39.911449,3室2厅2卫,116.629641,https://m.lianjia.com/chuzu/bj/zufang/BJ2242493216236773376.html,132,7400,元/月,京贸国际公寓,整租
5d1a257438a4e51e8e5e6252,1,2,郁花园,北京,大兴,498,南 北,2,近地铁 精装 集中供暖,整租·郁花园一里 2室2厅 南/北,39.780149,2室2厅1卫,116.344557,https://m.lianjia.com/chuzu/bj/zufang/BJ2253645632663191552.html,73,4400,元/月,郁花园一里,整租
5d1a19f338a4e51e8e5e3f5d,1,2,通州北苑,北京,通州,395,西南,1,近地铁 集中供暖 新上,通典铭居 2室1厅 西南,39.914053,2室1厅1卫,116.641021,https://m.lianjia.com/chuzu/bj/zufang/BJ2289587723327250432.html,85,5800,元/月,通典铭居,整租
5d1a0feb38a4e51e8e5e1d06,1,1,科技园区,北京,大兴,594,东,0,近地铁 精装 集中供暖 新上,整租·中海御鑫阁 1室0厅 东,39.825059,1室0厅1卫,116.305143,https://m.lianjia.com/chuzu/bj/zufang/BJ2289705707756863488.html,37,4500,元/月,中海御鑫阁,整租
5d1a106738a4e51e8e5e1eb4,3,3,丽泽,北京,丰台,673,南 北,2,近地铁 集中供暖,西宸原著 3室2厅 南/北,39.880609,3室2厅3卫,116.312045,https://m.lianjia.com/chuzu/bj/zufang/BJ2263505576485470208.html,176,45000,元/月,西宸原著,整租
5d1a15fc38a4e51e8e5e3198,1,2,北关,北京,通州,1030,南,1,近地铁 精装 集中供暖 新上 随时看房,整租·8哩岛 2室1厅 南,39.940239,2室1厅1卫,116.647632,https://m.lianjia.com/chuzu/bj/zufang/BJ2287551942249431040.html,89,6200,元/月,8哩岛,整租
5d1a1d5f38a4e51e8e5e4b67,3,3,奥林匹克公园,北京,昌平,,南 北,2,精装 随时看房,整租·万达大湖公馆 3室2厅 南/北,40.043403,3室2厅3卫,116.411947,https://m.lianjia.com/chuzu/bj/zufang/BJ2153338698748936192.html,216,24000,元/月,万达大湖公馆,整租
5d1a0c7f38a4e51e8e5e1148,2,3,知春路,北京,海淀,377,南,1,近地铁 精装 双卫生间 新上,整租·锦秋知春 3室1厅 南,39.980297,3室1厅2卫,116.355878,https://m.lianjia.com/chuzu/bj/zufang/BJ2287696916026769408.html,127,18000,元/月,锦秋知春,整租
5d1a16f538a4e51e8e5e34fd,1,2,果园,北京,通州,,南 北,1,集中供暖,探矿家属院 2室1厅 南/北,39.893384,2室1厅1卫,116.642694,https://m.lianjia.com/chuzu/bj/zufang/BJ2283247500700172288.html,70,4200,元/月,探矿家属院,整租
5d1a112438a4e51e8e5e213b,1,2,马家堡,北京,丰台,360,西,1,近地铁 集中供暖,瑞丽江畔 2室1厅 西,39.850039,2室1厅1卫,116.380262,https://m.lianjia.com/chuzu/bj/zufang/BJ2273864407140270080.html,72,6100,元/月,瑞丽江畔,整租
5d1a1b2c38a4e51e8e5e43a2,1,2,武夷花园,北京,通州,,南,1,随时看房,上营新村 2室1厅 南,39.910318,2室1厅1卫,116.687591,https://m.lianjia.com/chuzu/bj/zufang/BJ2275424471827349504.html,80,4500,元/月,上营新村,整租
5d1a291438a4e51e8e5e6b84,2,2,后沙峪,北京,顺义,,南,1,精装 双卫生间 随时看房,整租·国门智慧城 3房间 南,40.12395,3房间2卫,116.569194,https://m.lianjia.com/chuzu/bj/zufang/BJ2249840391689863168.html,53,4300,元/月,国门智慧城,整租
5d1a23ae38a4e51e8e5e5e33,1,2,天宫院,北京,大兴,32,南,1,近地铁 集中供暖 新上 随时看房,保利春天里 2室1厅 南,39.676703,2室1厅1卫,116.328109,https://m.lianjia.com/chuzu/bj/zufang/BJ2289824812417695744.html,85,4500,元/月,保利春天里,整租
5d1a2d8038a4e51e8e5e7aa4,1,1,良乡,北京,房山,505,北,1,近地铁 集中供暖,整租·旭辉E天地 2房间 复式 北,39.728172,2房间1卫,116.175752,https://m.lianjia.com/chuzu/bj/zufang/BJ2167085793921728512.html,34,2600,元/月,旭辉E天地,整租
5d1a0e3a38a4e51e8e5e172f,1,1,方庄,北京,丰台,6,南,1,近地铁 精装 集中供暖 新上,整租·芳古园一区 1室1厅 南,39.874515,1室1厅1卫,116.431165,https://m.lianjia.com/chuzu/bj/zufang/BJ2288944730065092608.html,43,4700,元/月,芳古园一区,整租
5d1a1e1738a4e51e8e5e4df2,1,2,昌平其它,北京,昌平,,南,1,精装 集中供暖,整租·保利罗兰香谷 2室1厅 南,40.123882,2室1厅1卫,116.274464,https://m.lianjia.com/chuzu/bj/zufang/BJ2285507202918137856.html,86,5000,元/月,保利罗兰香谷,整租
5d1a25ea38a4e51e8e5e63f4,1,2,枣园,北京,大兴,574,南 北,1,近地铁 集中供暖,滨河西里 2室1厅 南/北,39.756539,2室1厅1卫,116.346109,https://m.lianjia.com/chuzu/bj/zufang/BJ2276624427632566272.html,60,4000,元/月,滨河西里,整租
5d1a0d1838a4e51e8e5e134e,1,2,紫竹桥,北京,海淀,1196,南 北,1,集中供暖,整租·昌运宫9号院 2室1厅 南/北,39.948641,2室1厅1卫,116.312982,https://m.lianjia.com/chuzu/bj/zufang/BJ2212782230579978240.html,59,6600,元/月,昌运宫9号院,整租
5d1a19fb38a4e51e8e5e3f78,1,2,通州北苑,北京,通州,132,东南,2,近地铁 集中供暖,天时名苑 2室2厅 东南,39.911057,2室2厅1卫,116.640545,https://m.lianjia.com/chuzu/bj/zufang/BJ2262218676105388032.html,104,7500,元/月,天时名苑,整租
5d1a293138a4e51e8e5e6bed,2,1,后沙峪,北京,顺义,,北,1,,国门智慧城 2房间 北,40.12395,2房间2卫,116.569194,https://m.lianjia.com/chuzu/bj/zufang/BJ2239817258044235776.html,45,4800,元/月,国门智慧城,整租
5d1a123d38a4e51e8e5e2509,1,1,宋家庄,北京,丰台,,东,1,精装 随时看房,整租·元熙华府 1室1厅 东,39.857746,1室1厅1卫,116.439659,https://m.lianjia.com/chuzu/bj/zufang/BJ2253617276031352832.html,63,8000,元/月,元熙华府,整租
5d1a135538a4e51e8e5e28d0,1,2,玉泉营,北京,丰台,1100,东 西,1,近地铁 新上,整租·樊家村甲14号院 2室1厅 东/西,39.854948,2室1厅1卫,116.319666,https://m.lianjia.com/chuzu/bj/zufang/BJ2288357135974932480.html,84,5000,元/月,樊家村甲14号院,整租
5d1a2ca238a4e51e8e5e779c,1,1,长阳,北京,房山,,东,0,集中供暖,绿地启航社 1房间 东,39.763393,1房间1卫,116.166915,https://m.lianjia.com/chuzu/bj/zufang/BJ2251259081807364096.html,53,3100,元/月,绿地启航社,整租
5d1a247338a4e51e8e5e6059,1,2,瀛海,北京,大兴,981,南 北,1,集中供暖 随时看房,德茂小区 2室1厅 南/北,39.787865,2室1厅1卫,116.440103,https://m.lianjia.com/chuzu/bj/zufang/BJ2284126168632803328.html,71,3500,元/月,德茂小区,整租
5d1a1cbb38a4e51e8e5e492b,2,2,亦庄,北京,亦庄开发区,1029,西南,1,近地铁 精装 集中供暖 双卫生间,整租·林肯公寓 3房间 复式 西南,39.817227,3房间2卫,116.514743,https://m.lianjia.com/chuzu/bj/zufang/BJ1995298058132529152.html,57,7000,元/月,林肯公寓,整租
5d1a118d38a4e51e8e5e22a9,1,3,马连道,北京,丰台,993,南,1,近地铁 精装 新上 随时看房,整租·信和嘉园 3室1厅 南,39.885776,3室1厅1卫,116.332299,https://m.lianjia.com/chuzu/bj/zufang/BJ2241192147774873600.html,94,10000,元/月,信和嘉园,整租
5d1a2a4b38a4e51e8e5e6fce,1,2,顺义城,北京,顺义,,南,1,集中供暖 随时看房,整租·滨河小区 2室1厅 南,40.123965,2室1厅1卫,116.688628,https://m.lianjia.com/chuzu/bj/zufang/BJ2243385526251945984.html,73,3000,元/月,滨河小区,整租
5d1a1c7f38a4e51e8e5e484b,1,1,亦庄,北京,亦庄开发区,290,北,0,近地铁 集中供暖 新上,林肯公园 1房间 北,39.810115,1房间1卫,116.497474,https://m.lianjia.com/chuzu/bj/zufang/BJ2281634138396303360.html,44,4900,元/月,林肯公园,整租
5d1a0f0238a4e51e8e5e19e0,1,1,旧宫,北京,大兴,,南 北,1,集中供暖 新上 随时看房,巧克力城 1室1厅 南/北,39.822298,1室1厅1卫,116.450891,https://m.lianjia.com/chuzu/bj/zufang/BJ2276628292851744768.html,53,4000,元/月,巧克力城,整租
5d1a28be38a4e51e8e5e6a52,4,5,后沙峪,北京,顺义,,南 北,2,精装,整租·莫奈花园 5室2厅 南/北,40.107599,5室2厅4卫,116.53916,https://m.lianjia.com/chuzu/bj/zufang/BJ2279049883577499648.html,252,25000,元/月,莫奈花园,整租
5d1a0bb538a4e51e8e5e0e9e,1,2,西直门,北京,海淀,482,东 西,1,近地铁 精装 集中供暖,整租·德宝新园 2室1厅 东/西,39.945198,2室1厅1卫,116.353371,https://m.lianjia.com/chuzu/bj/zufang/BJ2277493329598365696.html,59,7500,元/月,德宝新园,整租
5d1a203e38a4e51e8e5e55a2,1,2,天通苑,北京,昌平,748,南,1,近地铁 集中供暖,东亚奥北中心北区 3房间 南,40.065593,3房间1卫,116.416806,https://m.lianjia.com/chuzu/bj/zufang/BJ2284123630373699584.html,82,7100,元/月,东亚奥北中心北区,整租
5d1a1b0238a4e51e8e5e4310,1,1,武夷花园,北京,通州,,南 北,1,,整租·运河园8号院 1室1厅 南/北,39.915811,1室1厅1卫,116.696674,https://m.lianjia.com/chuzu/bj/zufang/BJ2216491369470902272.html,66,3200,元/月,运河园8号院,整租
5d1a21c438a4e51e8e5e59b4,1,2,黄村火车站,北京,大兴,109,北,1,,泰禾中央广场 2室1厅 北,39.71933,2室1厅1卫,116.328282,https://m.lianjia.com/chuzu/bj/zufang/BJ2162245381759705088.html,57,4500,元/月,泰禾中央广场,整租
5d1a1a0a38a4e51e8e5e3fad,1,3,通州北苑,北京,通州,956,南 北,1,集中供暖,整租·西马庄园 3室1厅 南/北,39.918867,3室1厅1卫,116.636774,https://m.lianjia.com/chuzu/bj/zufang/BJ2249972373996437504.html,101,5000,元/月,西马庄园,整租
5d1a09a038a4e51e8e5e0788,2,3,田村,北京,海淀,733,南 北,1,近地铁 精装 集中供暖 双卫生间,整租·西山国际城 4房间 跃层 南/北,39.93305,4房间2卫,116.235511,https://m.lianjia.com/chuzu/bj/zufang/BJ2220199762488475648.html,55,10000,元/月,西山国际城,整租
5d1a140738a4e51e8e5e2b32,1,2,八角,北京,石景山,,南 北,1,集中供暖 新上 随时看房,融景城 2室1厅 南/北,39.900574,2室1厅1卫,116.212671,https://m.lianjia.com/chuzu/bj/zufang/BJ2287640540092833792.html,87,6000,元/月,融景城,整租
5d1a121238a4e51e8e5e2477,2,2,青塔,北京,丰台,427,南,1,近地铁 精装 集中供暖 双卫生间 随时看房,整租·万科紫苑 3房间 跃层 南,39.873962,3房间2卫,116.257104,https://m.lianjia.com/chuzu/bj/zufang/BJ2278312091100119040.html,78,9200,元/月,万科紫苑,整租
5d1a1f5638a4e51e8e5e5267,1,2,回龙观,北京,昌平,788,南 北,1,新上,天露园一区 2室1厅 南/北,40.089206,2室1厅1卫,116.322609,https://m.lianjia.com/chuzu/bj/zufang/BJ2289882872322203648.html,97,5300,元/月,天露园一区,整租
5d1a165f38a4e51e8e5e32f4,2,3,大兴其它,北京,亦庄开发区,,南 北,1,新上,南海家园五里 3室1厅 南/北,39.765149,3室1厅2卫,116.495794,https://m.lianjia.com/chuzu/bj/zufang/BJ2288379262094278656.html,108,5600,元/月,南海家园五里,整租
5d1a1b7b38a4e51e8e5e44b7,1,2,万达,北京,通州,,南,1,集中供暖 新上,整租·玉带河西街8号院 2室1厅 南,39.906566,2室1厅1卫,116.662119,https://m.lianjia.com/chuzu/bj/zufang/BJ2168051074299609088.html,65,3500,元/月,玉带河西街8号院,整租
5d1a2a3038a4e51e8e5e6f6f,1,2,顺义城,北京,顺义,,南 北,1,精装 集中供暖,整租·仓上小区 2室1厅 南/北,40.120667,2室1厅1卫,116.660144,https://m.lianjia.com/chuzu/bj/zufang/BJ2275212873477398528.html,76,3200,元/月,仓上小区,整租
5d1a1d9638a4e51e8e5e4c21,2,3,安宁庄,北京,昌平,,西南 北,2,集中供暖,上林溪 3室2厅 西南/北,40.051652,3室2厅2卫,116.331754,https://m.lianjia.com/chuzu/bj/zufang/BJ2274545362838487040.html,139,12500,元/月,上林溪,整租
5d1a29a538a4e51e8e5e6d87,1,2,马坡,北京,顺义,,南,1,,鲁能7号院颐景溪园 2室1厅 南,40.190146,2室1厅1卫,116.669984,https://m.lianjia.com/chuzu/bj/zufang/BJ2238377978918871040.html,86,4000,元/月,鲁能7号院颐景溪园,整租
5d1a1a3b38a4e51e8e5e4056,2,7,通州北苑,北京,通州,587,南 北,2,近地铁 集中供暖,京贸国际公寓 7室2厅 南/北,39.911449,7室2厅2卫,116.629641,https://m.lianjia.com/chuzu/bj/zufang/BJ2284023889371594752.html,211,13500,元/月,京贸国际公寓,整租
5d1a2d9938a4e51e8e5e7aff,1,2,阎村,北京,房山,448,南 北,1,近地铁,燕化星城建德一里 2室1厅 南/北,39.718885,2室1厅1卫,116.072535,https://m.lianjia.com/chuzu/bj/zufang/BJ2269330484817297408.html,67,2700,元/月,燕化星城建德一里,整租
5d1a1da238a4e51e8e5e4c4a,1,1,北七家,北京,昌平,,东 西,1,精装 集中供暖 随时看房,整租·北亚花园 1室1厅 东/西,40.135623,1室1厅1卫,116.428411,https://m.lianjia.com/chuzu/bj/zufang/BJ2268688180889001984.html,65,3200,元/月,北亚花园,整租
5d1a1fd438a4e51e8e5e5425,1,2,沙河,北京,昌平,,南,1,随时看房,站前路11号 2室1厅 南,40.131712,2室1厅1卫,116.273206,https://m.lianjia.com/chuzu/bj/zufang/BJ2273911643526135808.html,63,3500,元/月,站前路11号,整租
5d1a2e4638a4e51e8e5e7d09,1,2,大峪,北京,门头沟,,南,1,集中供暖 随时看房,整租·惠民家园 2室1厅 南,39.944701,2室1厅1卫,116.100772,https://m.lianjia.com/chuzu/bj/zufang/BJ2273036773854814208.html,64,2400,元/月,惠民家园,整租
5d1a129138a4e51e8e5e262a,1,2,五里店,北京,丰台,,南 北,1,集中供暖,五里店南里 2室1厅 南/北,39.860613,2室1厅1卫,116.265784,https://m.lianjia.com/chuzu/bj/zufang/BJ2283942227371892736.html,50,3900,元/月,五里店南里,整租
5d1a119938a4e51e8e5e22d5,1,2,马连道,北京,丰台,17,南,1,近地铁 集中供暖 随时看房,三义西里 2室1厅 南,39.894005,2室1厅1卫,116.334012,https://m.lianjia.com/chuzu/bj/zufang/BJ2241346026411655168.html,54,5200,元/月,三义西里,整租
5d1a16e338a4e51e8e5e34bb,1,2,果园,北京,通州,366,南 北,1,近地铁 集中供暖,新华联家园北区 2室1厅 南/北,39.899289,2室1厅1卫,116.648674,https://m.lianjia.com/chuzu/bj/zufang/BJ2275798545384873984.html,103,6800,元/月,新华联家园北区,整租
5d1a155c38a4e51e8e5e2fdc,1,1,苹果园,北京,石景山,,南,1,集中供暖 新上,西山奥园 1室1厅 南,39.943021,1室1厅1卫,116.185767,https://m.lianjia.com/chuzu/bj/zufang/BJ2280964419951534080.html,53,4400,元/月,西山奥园,整租
5d1a159638a4e51e8e5e30ac,2,2,石景山其它,北京,门头沟,437,南,1,近地铁 集中供暖,绿地环球文化金融城 3房间 南,39.911218,3房间2卫,116.192973,https://m.lianjia.com/chuzu/bj/zufang/BJ2163168511059566592.html,58,7000,元/月,绿地环球文化金融城,整租
5d1a1a4338a4e51e8e5e4073,1,2,通州其它,北京,亦庄开发区,,西南,1,,星悦国际 2室1厅 西南,39.768586,2室1厅1卫,116.584874,https://m.lianjia.com/chuzu/bj/zufang/BJ2282493384537153536.html,88,4500,元/月,星悦国际,整租
5d1a1db038a4e51e8e5e4c7b,1,2,北七家,北京,昌平,,南 北,2,随时看房,整租·名佳花园三区 2室2厅 南/北,40.112553,2室2厅1卫,116.425304,https://m.lianjia.com/chuzu/bj/zufang/BJ2277292966890438656.html,86,4200,元/月,名佳花园三区,整租
5d1a1aa838a4e51e8e5e41d1,2,3,武夷花园,北京,通州,,南 北,2,集中供暖 新上,月季园 3室2厅 南/北,39.925108,3室2厅2卫,116.712033,https://m.lianjia.com/chuzu/bj/zufang/BJ2273661516853018624.html,140,6900,元/月,月季园,整租
5d1a1d7138a4e51e8e5e4ba1,3,4,奥林匹克公园,北京,昌平,461,南 北,1,近地铁 精装 随时看房,整租·天溪园 4室1厅 复式 南/北,40.041687,4室1厅3卫,116.420275,https://m.lianjia.com/chuzu/bj/zufang/BJ2116567575780392960.html,230,28000,元/月,天溪园,整租
5d1a1e1a38a4e51e8e5e4dfa,1,3,昌平其它,北京,昌平,,南 北,2,集中供暖 随时看房,保利罗兰香谷 3室2厅 南/北,40.123882,3室2厅1卫,116.274464,https://m.lianjia.com/chuzu/bj/zufang/BJ2284811590526042112.html,92,5100,元/月,保利罗兰香谷,整租
5d1a2b5538a4e51e8e5e7372,1,1,顺义其它,北京,顺义,1174,西,1,集中供暖,东亚首航国际 2房间 西,40.134877,2房间1卫,116.605239,https://m.lianjia.com/chuzu/bj/zufang/BJ2256563241637920768.html,39,2700,元/月,东亚首航国际,整租
5d1a144838a4e51e8e5e2c14,1,2,古城,北京,石景山,463,南,0,近地铁 集中供暖 新上,古城路小区 2室0厅 南,39.920866,2室0厅1卫,116.195155,https://m.lianjia.com/chuzu/bj/zufang/BJ2290595466577969152.html,42,4000,元/月,古城路小区,整租
5d1a2d7338a4e51e8e5e7a79,1,3,良乡,北京,房山,,南 北,1,,整租·昊天大街118号 3室1厅 南/北,39.738866,3室1厅1卫,116.155439,https://m.lianjia.com/chuzu/bj/zufang/BJ2286072843878285312.html,65,3200,元/月,昊天大街118号,整租
5d1a2f5338a4e51e8e5e802c,1,2,石门营,北京,门头沟,447,南 北,1,近地铁 集中供暖 随时看房,石门营新区六区 2室1厅 南/北,39.890387,2室1厅1卫,116.110451,https://m.lianjia.com/chuzu/bj/zufang/BJ2263008520465563648.html,65,2500,元/月,石门营新区六区,整租
5d1a0a4638a4e51e8e5e09c2,3,3,万柳,北京,海淀,60,南 北,2,近地铁 集中供暖 新上,万柳书院 3室2厅 南/北,39.97983,3室2厅3卫,116.299229,https://m.lianjia.com/chuzu/bj/zufang/BJ2289623840042516480.html,273,90000,元/月,万柳书院,整租
5d1a29a038a4e51e8e5e6d74,1,1,马坡,北京,顺义,,南 北,1,集中供暖 随时看房,马坡花园一区 1室1厅 南/北,40.180564,1室1厅1卫,116.661432,https://m.lianjia.com/chuzu/bj/zufang/BJ2267388787598835712.html,75,2900,元/月,马坡花园一区,整租
5d1a148238a4e51e8e5e2ce0,1,1,鲁谷,北京,石景山,780,西,1,近地铁 集中供暖 随时看房,整租·依翠园 1室1厅 西,39.907108,1室1厅1卫,116.22664,https://m.lianjia.com/chuzu/bj/zufang/BJ2253486417361502208.html,45,4000,元/月,依翠园,整租
5d1a0a1638a4e51e8e5e0922,1,2,五棵松,北京,海淀,,南 北,1,集中供暖,金沟河5号院 2室1厅 南/北,39.925011,2室1厅1卫,116.272671,https://m.lianjia.com/chuzu/bj/zufang/BJ2261538189229965312.html,55,6000,元/月,金沟河5号院,整租
5d1a149b38a4e51e8e5e2d38,1,2,鲁谷,北京,石景山,636,南,2,近地铁 集中供暖,整租·远洋山水 2室2厅 南,39.906426,2室2厅1卫,116.247008,https://m.lianjia.com/chuzu/bj/zufang/BJ2280929173638234112.html,97,8500,元/月,远洋山水,整租
5d1a1c2f38a4e51e8e5e472f,1,2,亦庄,北京,亦庄开发区,,南,1,集中供暖 随时看房,金色漫香林四期 2室1厅 南,39.828866,2室1厅1卫,116.524034,https://m.lianjia.com/chuzu/bj/zufang/BJ2285411306565804032.html,76,5500,元/月,金色漫香林四期,整租
5d1a174c38a4e51e8e5e3625,1,3,九棵树(家乐福),北京,通州,,西北,1,集中供暖 随时看房,整租·大方居 3室1厅 西北,39.88191,3室1厅1卫,116.63734,https://m.lianjia.com/chuzu/bj/zufang/BJ2212035255815651328.html,87,4800,元/月,大方居,整租
5d1a14cc38a4e51e8e5e2ddf,2,3,鲁谷,北京,石景山,636,东南,1,近地铁 精装 集中供暖 双卫生间,整租·远洋山水 3室1厅 东南,39.906426,3室1厅2卫,116.247008,https://m.lianjia.com/chuzu/bj/zufang/BJ2280438832673325056.html,141,13000,元/月,远洋山水,整租
5d1a1cfa38a4e51e8e5e4a0d,2,3,玉桥,北京,通州,,南 北,2,集中供暖 新上 随时看房,合生滨江帝景 3室2厅 南/北,39.895218,3室2厅2卫,116.70106,https://m.lianjia.com/chuzu/bj/zufang/BJ2287735929227714560.html,155,8500,元/月,合生滨江帝景,整租
5d1a201d38a4e51e8e5e552a,2,3,天通苑,北京,昌平,,南 北,1,精装 集中供暖 双卫生间,整租·天通苑东一区 3室1厅 南/北,40.072066,3室1厅2卫,116.43942,https://m.lianjia.com/chuzu/bj/zufang/BJ2236840472843141120.html,130,7600,元/月,天通苑东一区,整租
5d1a1c7f38a4e51e8e5e484d,1,2,亦庄,北京,亦庄开发区,290,东,1,近地铁 精装 集中供暖 新上 随时看房,整租·林肯公园 3房间 东,39.810115,3房间1卫,116.497474,https://m.lianjia.com/chuzu/bj/zufang/BJ2284064193647230976.html,63,6200,元/月,林肯公园,整租
5d1a093b38a4e51e8e5e0630,2,3,四季青,北京,海淀,696,南 北,2,近地铁 精装 集中供暖 双卫生间,整租·汤泉逸墅 3室2厅 南/北,39.943762,3室2厅2卫,116.27921,https://m.lianjia.com/chuzu/bj/zufang/BJ2271485252495491072.html,175,21000,元/月,汤泉逸墅,整租
5d1a25b338a4e51e8e5e6332,1,1,枣园,北京,大兴,,南,1,集中供暖 新上,兴城丽源 1室1厅 南,39.760977,1室1厅1卫,116.323106,https://m.lianjia.com/chuzu/bj/zufang/BJ2290441752366292992.html,64,3500,元/月,兴城丽源,整租
5d1a145438a4e51e8e5e2c3d,1,2,古城,北京,石景山,85,南,1,近地铁 精装 集中供暖,整租·古城南路 2室1厅 南,39.915185,2室1厅1卫,116.196272,https://m.lianjia.com/chuzu/bj/zufang/BJ2270819917450182656.html,44,4800,元/月,古城南路,整租
5d1a183b38a4e51e8e5e3961,1,2,梨园,北京,通州,1136,南 北,1,精装 集中供暖 随时看房,整租·新城阳光 2室1厅 南/北,39.88789,2室1厅1卫,116.669921,https://m.lianjia.com/chuzu/bj/zufang/BJ2267879479734960128.html,85,4800,元/月,新城阳光,整租
5d1a170c38a4e51e8e5e354b,1,2,九棵树(家乐福),北京,通州,,东,1,精装 集中供暖,整租·大方居 2室1厅 东,39.88191,2室1厅1卫,116.63734,https://m.lianjia.com/chuzu/bj/zufang/BJ2269326036028096512.html,87,4000,元/月,大方居,整租
5d1a131b38a4e51e8e5e2808,1,2,新宫,北京,丰台,1004,南 北,1,集中供暖,南庭新苑南区 2室1厅 南/北,39.809437,2室1厅1卫,116.374699,https://m.lianjia.com/chuzu/bj/zufang/BJ2285444450224447488.html,68,5300,元/月,南庭新苑南区,整租
5d1a2ce938a4e51e8e5e7891,2,3,良乡,北京,房山,303,南,1,近地铁 集中供暖 双卫生间,整租·鸿顺园西区 3室1厅 南,39.728549,3室1厅2卫,116.159596,https://m.lianjia.com/chuzu/bj/zufang/BJ2257254191271510016.html,129,4200,元/月,鸿顺园西区,整租
5d1a157638a4e51e8e5e3034,1,2,苹果园,北京,石景山,25,东 西,1,近地铁 集中供暖,苹果园小区一区 2室1厅 东/西,39.935324,2室1厅1卫,116.197167,https://m.lianjia.com/chuzu/bj/zufang/BJ2281568993968406528.html,58,5000,元/月,苹果园小区一区,整租
5d1a1d1238a4e51e8e5e4a66,1,1,玉桥,北京,通州,,南 北,0,集中供暖,幸福艺居 1室0厅 南/北,39.894711,1室0厅1卫,116.695911,https://m.lianjia.com/chuzu/bj/zufang/BJ2249988789831745536.html,51,3200,元/月,幸福艺居,整租
5d1a1d3738a4e51e8e5e4ae1,1,3,奥林匹克公园,北京,昌平,1153,南 北,1,集中供暖 随时看房,学士居 3室1厅 跃层 南/北,40.01614,3室1厅1卫,116.372248,https://m.lianjia.com/chuzu/bj/zufang/BJ2284493461854371840.html,77,7500,元/月,学士居,整租
5d1a1cfe38a4e51e8e5e4a1e,1,2,玉桥,北京,通州,,南 北,1,集中供暖 随时看房,玉桥南里 2室1厅 南/北,39.895196,2室1厅1卫,116.690108,https://m.lianjia.com/chuzu/bj/zufang/BJ2225316174374109184.html,68,3300,元/月,玉桥南里,整租
5d1a1ba338a4e51e8e5e4545,1,3,万达,北京,通州,,南 北,1,集中供暖,东方生活区 3室1厅 南/北,39.907705,3室1厅1卫,116.671316,https://m.lianjia.com/chuzu/bj/zufang/BJ2284013517873364992.html,70,3800,元/月,东方生活区,整租
5d1a200a38a4e51e8e5e54e7,2,2,天通苑,北京,昌平,,南 北,1,集中供暖 随时看房,天通苑北三区 2室1厅 南/北,40.082372,2室1厅2卫,116.439341,https://m.lianjia.com/chuzu/bj/zufang/BJ2251367012783620096.html,117,6000,元/月,天通苑北三区,整租
5d1a221538a4e51e8e5e5ad0,1,2,黄村中,北京,大兴,705,南,1,集中供暖 随时看房,富强东里 2室1厅 南,39.745849,2室1厅1卫,116.350909,https://m.lianjia.com/chuzu/bj/zufang/BJ2278160334797668352.html,45,3300,元/月,富强东里,整租
5d1a0ed538a4e51e8e5e1946,1,2,和义,北京,大兴,,南 北,1,集中供暖 随时看房,红星北里 2室1厅 南/北,39.813832,2室1厅1卫,116.433392,https://m.lianjia.com/chuzu/bj/zufang/BJ2245494947690323968.html,70,4100,元/月,红星北里,整租
5d1a1eeb38a4e51e8e5e50e3,2,2,回龙观,北京,昌平,139,南 北,2,近地铁 集中供暖,龙泽苑西区 2室2厅 跃层 南/北,40.078668,2室2厅2卫,116.328035,https://m.lianjia.com/chuzu/bj/zufang/BJ2282634628169220096.html,126,8800,元/月,龙泽苑西区,整租
5d1a096438a4e51e8e5e06bc,1,2,双榆树,北京,海淀,608,南 北,1,近地铁 精装 集中供暖,整租·中关村东路 2室1厅 南/北,39.97906,2室1厅1卫,116.339402,https://m.lianjia.com/chuzu/bj/zufang/BJ2269303052593012736.html,58,8600,元/月,中关村东路,整租
5d1a243638a4e51e8e5e5f81,1,2,瀛海,北京,大兴,,南 北,1,集中供暖 随时看房,整租·瀛海家园和园B区 2室1厅 南/北,39.769577,2室1厅1卫,116.443135,https://m.lianjia.com/chuzu/bj/zufang/BJ2278250233747996672.html,85,3300,元/月,瀛海家园和园B区,整租
5d1a2b2138a4e51e8e5e72c5,2,3,顺义其它,北京,顺义,,南 北,2,集中供暖 随时看房,馨港庄园二区 3室2厅 南/北,40.039656,3室2厅2卫,116.675236,https://m.lianjia.com/chuzu/bj/zufang/BJ2207296551624114176.html,156,4800,元/月,馨港庄园二区,整租
5d1a0fcb38a4e51e8e5e1c99,1,1,科技园区,北京,大兴,799,东南,1,近地铁 精装 集中供暖,整租·御景春天 1室1厅 东南,39.824775,1室1厅1卫,116.306686,https://m.lianjia.com/chuzu/bj/zufang/BJ2267236782380949504.html,42,4800,元/月,御景春天,整租
5d1a200438a4e51e8e5e54d2,2,3,天通苑,北京,昌平,204,西南,1,近地铁 精装 集中供暖 双卫生间,整租·天通西苑二区 3室1厅 西南,40.077796,3室1厅2卫,116.415742,https://m.lianjia.com/chuzu/bj/zufang/BJ2283236751252398080.html,138,9000,元/月,天通西苑二区,整租
5d1a17e338a4e51e8e5e382e,3,6,潞苑,北京,通州,,南 北,3,集中供暖,运通花园 6室3厅 南/北,39.93232,6室3厅3卫,116.680828,https://m.lianjia.com/chuzu/bj/zufang/BJ2270304050664972288.html,321,25000,元/月,运通花园,整租
5d1a2c0338a4e51e8e5e756e,2,3,长阳,北京,房山,656,南 北,1,近地铁 精装 集中供暖 双卫生间,整租·建邦华庭西区 3室1厅 南/北,39.774477,3室1厅2卫,116.217497,https://m.lianjia.com/chuzu/bj/zufang/BJ2281924405959327744.html,119,7000,元/月,建邦华庭西区,整租
5d1a0a1038a4e51e8e5e090b,1,2,五棵松,北京,海淀,,南 北,1,随时看房,西区邮电局 2室1厅 南/北,39.924581,2室1厅1卫,116.2703,https://m.lianjia.com/chuzu/bj/zufang/BJ2273036755030777856.html,70,6500,元/月,西区邮电局,整租
5d1a134238a4e51e8e5e288e,1,2,岳各庄,北京,丰台,,东南,1,精装 集中供暖 随时看房,整租·紫辰院 3房间 东南,39.887554,3房间1卫,116.288146,https://m.lianjia.com/chuzu/bj/zufang/BJ2246876158681956352.html,80,7000,元/月,紫辰院,整租
5d1a258c38a4e51e8e5e62a4,2,3,亦庄开发区其它,北京,亦庄开发区,,南 北,2,随时看房,观海苑 3室2厅 南/北,39.77121,3室2厅2卫,116.502131,https://m.lianjia.com/chuzu/bj/zufang/BJ2252640232552284160.html,118,6600,元/月,观海苑,整租
5d1a119738a4e51e8e5e22cc,1,2,马连道,北京,丰台,1048,东 南 西 北,1,近地铁 集中供暖 随时看房,整租·马连道路13号院 2室1厅 东/南/西/北,39.886274,2室1厅1卫,116.328089,https://m.lianjia.com/chuzu/bj/zufang/BJ2262174730000285696.html,51,5600,元/月,马连道路13号院,整租
5d1a13cc38a4e51e8e5e2a6a,1,2,永定门,北京,丰台,9,西,1,近地铁 精装,整租·新奥洋房 2室1厅 西,39.869811,2室1厅1卫,116.416543,https://m.lianjia.com/chuzu/bj/zufang/BJ2276572533278900224.html,64,7000,元/月,新奥洋房,整租
5d1a13c838a4e51e8e5e2a5b,1,2,永定门,北京,丰台,481,东 西,1,近地铁 精装 集中供暖 随时看房,整租·郭庄北里 2室1厅 东/西,39.876106,2室1厅1卫,116.418047,https://m.lianjia.com/chuzu/bj/zufang/BJ2257705717542682624.html,66,5200,元/月,郭庄北里,整租
5d1a172438a4e51e8e5e359b,1,2,九棵树(家乐福),北京,通州,950,东 南,1,精装 集中供暖,整租·龙湖蔚澜香醍 2室1厅 东/南,39.890866,2室1厅1卫,116.655423,https://m.lianjia.com/chuzu/bj/zufang/BJ2262962409931014144.html,89,7000,元/月,龙湖蔚澜香醍,整租
5d1a174338a4e51e8e5e3606,2,3,九棵树(家乐福),北京,通州,592,南 北,2,近地铁 精装 集中供暖 双卫生间 随时看房,整租·瑞都国际南区 3室2厅 南/北,39.893938,3室2厅2卫,116.662088,https://m.lianjia.com/chuzu/bj/zufang/BJ2265811669467283456.html,141,7800,元/月,瑞都国际南区,整租
5d1a0c1d38a4e51e8e5e0ff6,1,1,杨庄,北京,石景山,,东南,1,精装 集中供暖 随时看房,整租·地铁古城家园 1室1厅 东南,39.923985,1室1厅1卫,116.200397,https://m.lianjia.com/chuzu/bj/zufang/BJ2278124130287230976.html,63,4300,元/月,地铁古城家园,整租
5d1a21d938a4e51e8e5e59fc,2,4,黄村北,北京,大兴,324,东 南 北,2,近地铁 精装 集中供暖 双卫生间,整租·翡翠城一期 4室2厅 东/南/北,39.781289,4室2厅2卫,116.331299,https://m.lianjia.com/chuzu/bj/zufang/BJ2273053525594611712.html,187,10500,元/月,翡翠城一期,整租
5d1a2eb738a4e51e8e5e7e92,1,2,大峪,北京,门头沟,,南,1,集中供暖 新上,门头沟京汉铂寓 2室1厅 南,39.938103,2室1厅1卫,116.112066,https://m.lianjia.com/chuzu/bj/zufang/BJ2290320485013536768.html,88,4800,元/月,门头沟京汉铂寓,整租
5d1a260438a4e51e8e5e6452,1,3,枣园,北京,大兴,59,南 北,2,近地铁 集中供暖 随时看房,枣园小区 3室2厅 南/北,39.757413,3室2厅1卫,116.334045,https://m.lianjia.com/chuzu/bj/zufang/BJ2267150820011417600.html,113,5000,元/月,枣园小区,整租
5d1a160b38a4e51e8e5e31cd,1,2,北关,北京,通州,,南 北,1,集中供暖 随时看房,整租·翠福园 2室1厅 南/北,39.951388,2室1厅1卫,116.659546,https://m.lianjia.com/chuzu/bj/zufang/BJ2281915574894469120.html,91,3800,元/月,翠福园,整租
5d1a2f9238a4e51e8e5e80f3,3,4,怀柔,北京,怀柔,,南 北,2,精装,整租·龙山新新小镇六期 4室2厅 南/北,40.289269,4室2厅3卫,116.654807,https://m.lianjia.com/chuzu/bj/zufang/BJ2259291201624875008.html,348,13000,元/月,龙山新新小镇六期,整租
5d1a1e1d38a4e51e8e5e4e04,2,7,昌平其它,北京,昌平,,南 北,3,双卫生间,整租·北京湾 7室3厅 南/北,40.233417,7室3厅2卫,116.188253,https://m.lianjia.com/chuzu/bj/zufang/BJ2049857407764668416.html,374,15000,元/月,北京湾,整租
5d1a2ad138a4e51e8e5e71a5,1,1,顺义城,北京,顺义,,南,1,集中供暖,阳光水岸 1室1厅 南,40.147679,1室1厅1卫,116.664908,https://m.lianjia.com/chuzu/bj/zufang/BJ2209839037424861184.html,72,3600,元/月,阳光水岸,整租
5d1a0d6338a4e51e8e5e144f,1,2,北京南站,北京,丰台,,南,1,集中供暖 新上 随时看房,鼎立水岸家园 2室1厅 南,39.86688,2室1厅1卫,116.372015,https://m.lianjia.com/chuzu/bj/zufang/BJ2290458912589627392.html,100,7800,元/月,鼎立水岸家园,整租
5d1a104038a4e51e8e5e1e2e,1,2,看丹桥,北京,丰台,725,北,1,近地铁 集中供暖 新上 随时看房,新华街三里 2室1厅 北,39.851185,2室1厅1卫,116.298181,https://m.lianjia.com/chuzu/bj/zufang/BJ2289700602382925824.html,62,4700,元/月,新华街三里,整租
5d1a143038a4e51e8e5e2bc0,1,2,城子,北京,门头沟,,南 北,1,集中供暖,三家店新建路 2室1厅 南/北,39.958624,2室1厅1卫,116.121289,https://m.lianjia.com/chuzu/bj/zufang/BJ2267288633004261376.html,62,2400,元/月,三家店新建路,整租
5d1a219e38a4e51e8e5e5928,2,2,高米店南,北京,大兴,141,南 北,1,近地铁 精装 集中供暖 双卫生间 新上,整租·新里西斯莱公馆 2室1厅 南/北,39.770444,2室1厅2卫,116.344335,https://m.lianjia.com/chuzu/bj/zufang/BJ2291034894437974016.html,100,6500,元/月,新里西斯莱公馆,整租
5d1a2ed538a4e51e8e5e7efd,2,2,大峪,北京,门头沟,,南,1,精装 集中供暖 双卫生间 新上,整租·金泰丽湾悦栖山 2室1厅 南,39.942737,2室1厅2卫,116.099742,https://m.lianjia.com/chuzu/bj/zufang/BJ2287380383010136064.html,93,4800,元/月,金泰丽湾悦栖山,整租
5d1a243a38a4e51e8e5e5f90,1,1,瀛海,北京,大兴,52,南,0,近地铁 新上,中国铁建兴盛嘉苑 1室0厅 南,39.779431,1室0厅1卫,116.448929,https://m.lianjia.com/chuzu/bj/zufang/BJ2290468274393325568.html,37,3200,元/月,中国铁建兴盛嘉苑,整租
5d1a2ce138a4e51e8e5e7875,1,2,良乡,北京,房山,,南 北,1,集中供暖 随时看房,整租·体育场路26号院 2室1厅 南/北,39.746879,2室1厅1卫,116.153085,https://m.lianjia.com/chuzu/bj/zufang/BJ2229746492137013248.html,58,2100,元/月,体育场路26号院,整租
5d1a149038a4e51e8e5e2d11,1,2,鲁谷,北京,石景山,1188,南 北,1,集中供暖 随时看房,六合园 2室1厅 南/北,39.904248,2室1厅1卫,116.224768,https://m.lianjia.com/chuzu/bj/zufang/BJ2285264754270273536.html,69,5200,元/月,六合园,整租
5d1a0b6438a4e51e8e5e0d90,1,1,小西天,北京,海淀,1104,东,0,集中供暖,新外大街3号院 1室0厅 东,39.972234,1室0厅1卫,116.375935,https://m.lianjia.com/chuzu/bj/zufang/BJ2262080568395579392.html,30,3500,元/月,新外大街3号院,整租
5d1a0ad938a4e51e8e5e0bb5,1,3,西三旗,北京,昌平,,南 北,1,集中供暖 新上,整租·常秀家园 3室1厅 南/北,40.060932,3室1厅1卫,116.337434,https://m.lianjia.com/chuzu/bj/zufang/BJ2287544412752330752.html,84,6300,元/月,常秀家园,整租
5d1a25a138a4e51e8e5e62ee,2,3,亦庄开发区其它,北京,亦庄开发区,,南 北,1,,中信新城西区 3室1厅 南/北,39.788919,3室1厅2卫,116.488629,https://m.lianjia.com/chuzu/bj/zufang/BJ2273166213524242432.html,170,12000,元/月,中信新城西区,整租
5d1a2c2038a4e51e8e5e75d3,1,2,长阳,北京,房山,,南,1,集中供暖 随时看房,西悦欣居 2室1厅 南,39.761181,2室1厅1卫,116.2116,https://m.lianjia.com/chuzu/bj/zufang/BJ2254772089296781312.html,89,3800,元/月,西悦欣居,整租
5d1a299038a4e51e8e5e6d3d,1,2,马坡,北京,顺义,,南 北,2,集中供暖 随时看房,马坡花园一区 2室2厅 南/北,40.180564,2室2厅1卫,116.661432,https://m.lianjia.com/chuzu/bj/zufang/BJ2268051328381231104.html,91,3500,元/月,马坡花园一区,整租
5d1a294238a4e51e8e5e6c2b,2,2,后沙峪,北京,顺义,,北,1,随时看房,国门智慧城 3房间 北,40.12395,3房间2卫,116.569194,https://m.lianjia.com/chuzu/bj/zufang/BJ2270184063706857472.html,66,5300,元/月,国门智慧城,整租
5d1a1b5938a4e51e8e5e443f,1,1,武夷花园,北京,通州,,西 西北,2,集中供暖,整租·百合湾 3房间 跃层 西/西北,39.920038,3房间1卫,116.697632,https://m.lianjia.com/chuzu/bj/zufang/BJ2180246889076113408.html,47,12000,元/月,百合湾,整租
5d1a28af38a4e51e8e5e6a1e,1,1,后沙峪,北京,顺义,,南,1,随时看房,整租·清岚花园回民营一区 1室1厅 南,40.126437,1室1厅1卫,116.550468,https://m.lianjia.com/chuzu/bj/zufang/BJ2203529719335624704.html,61,3800,元/月,清岚花园回民营一区,整租
5d1a221638a4e51e8e5e5ad6,1,2,黄村中,北京,大兴,219,南 北,1,近地铁 集中供暖,兴政西里 2室1厅 南/北,39.734779,2室1厅1卫,116.341153,https://m.lianjia.com/chuzu/bj/zufang/BJ2265801108343488512.html,62,3500,元/月,兴政西里,整租
5d1a1fa438a4e51e8e5e537a,1,1,立水桥,北京,昌平,745,东北,1,近地铁 集中供暖 新上 随时看房,润枫欣尚 2房间 东北,40.063693,2房间1卫,116.419561,https://m.lianjia.com/chuzu/bj/zufang/BJ2286697915936686080.html,63,6000,元/月,润枫欣尚,整租
5d1a1f6f38a4e51e8e5e52bf,1,1,立水桥,北京,昌平,575,西,0,近地铁 随时看房,整租·北方明珠 1室0厅 西,40.06389,1室0厅1卫,116.422479,https://m.lianjia.com/chuzu/bj/zufang/BJ2210635365701140480.html,55,4600,元/月,北方明珠,整租
5d1a0f8f38a4e51e8e5e1bc3,2,3,旧宫,北京,大兴,,西南,1,集中供暖,东亚五环国际 4房间 西南,39.798966,4房间2卫,116.460975,https://m.lianjia.com/chuzu/bj/zufang/BJ2263591457032249344.html,124,8000,元/月,东亚五环国际,整租
5d1a179338a4e51e8e5e371a,1,3,潞苑,北京,通州,,南 北,1,集中供暖 新上 随时看房,中建雅颂居 3室1厅 南/北,39.946905,3室1厅1卫,116.705966,https://m.lianjia.com/chuzu/bj/zufang/BJ2287413908761755648.html,89,3800,元/月,中建雅颂居,整租
5d1a169d38a4e51e8e5e33c8,1,1,果园,北京,通州,835,东 南,1,月租 近地铁 精装 集中供暖,整租·果园西小区 1室1厅 东/南,39.901631,1室1厅1卫,116.659332,https://m.lianjia.com/chuzu/bj/zufang/BJ2215178871262167040.html,76,3500,元/月,果园西小区,整租
5d1a18ca38a4e51e8e5e3b53,2,3,临河里,北京,通州,,南 北,2,集中供暖 随时看房,瑞都公园世家南区 3室2厅 南/北,39.870919,3室2厅2卫,116.68583,https://m.lianjia.com/chuzu/bj/zufang/BJ2199089108876263424.html,130,6500,元/月,瑞都公园世家南区,整租
5d1a180838a4e51e8e5e38ae,1,2,梨园,北京,通州,,南 北,1,集中供暖 新上 随时看房,梨园东里 2室1厅 南/北,39.889508,2室1厅1卫,116.689803,https://m.lianjia.com/chuzu/bj/zufang/BJ2285966114754674688.html,61,3500,元/月,梨园东里,整租
5d1a09f338a4e51e8e5e08a8,1,1,五道口,北京,海淀,245,东,1,近地铁 集中供暖 随时看房,红杉国际公寓 2房间 东,40.008394,2房间1卫,116.345466,https://m.lianjia.com/chuzu/bj/zufang/BJ2259477763503431680.html,88,12300,元/月,红杉国际公寓,整租
5d1a11a138a4e51e8e5e22ef,1,1,马连道,北京,丰台,274,南,1,近地铁 集中供暖 随时看房,红莲北里 1室1厅 南,39.891697,1室1厅1卫,116.340633,https://m.lianjia.com/chuzu/bj/zufang/BJ2282348484562518016.html,40,5100,元/月,红莲北里,整租
5d1a1e0938a4e51e8e5e4dc0,2,4,北七家,北京,昌平,,南 北,2,集中供暖,蓬莱公寓西区 4室2厅 南/北,40.130641,4室2厅2卫,116.421727,https://m.lianjia.com/chuzu/bj/zufang/BJ2285229304365457408.html,196,6000,元/月,蓬莱公寓西区,整租
5d1a2ae638a4e51e8e5e71f1,1,2,顺义城,北京,顺义,1108,南 北,1,集中供暖 新上,西辛北区 2室1厅 南/北,40.144305,2室1厅1卫,116.649091,https://m.lianjia.com/chuzu/bj/zufang/BJ2290415532136480768.html,73,3600,元/月,西辛北区,整租
5d1a2ba638a4e51e8e5e7427,1,2,天竺,北京,顺义,,南 北,1,集中供暖,天竺花园 2室1厅 南/北,40.066974,2室1厅1卫,116.571828,https://m.lianjia.com/chuzu/bj/zufang/BJ2262167152629129216.html,94,5800,元/月,天竺花园,整租
5d1a218838a4e51e8e5e58da,3,4,高米店南,北京,大兴,141,南 北,2,近地铁 精装 集中供暖,整租·新里西斯莱公馆 4室2厅 南/北,39.770444,4室2厅3卫,116.344335,https://m.lianjia.com/chuzu/bj/zufang/BJ2273608281312198656.html,186,15000,元/月,新里西斯莱公馆,整租
5d1a2e9938a4e51e8e5e7e2b,1,2,大峪,北京,门头沟,,南,1,集中供暖,整租·黑山A1区 2室1厅 南,39.940649,2室1厅1卫,116.101871,https://m.lianjia.com/chuzu/bj/zufang/BJ2282384915255533568.html,65,2500,元/月,黑山A1区,整租
5d1a099a38a4e51e8e5e0773,1,2,田村,北京,海淀,500,东,1,近地铁 精装,整租·雪芳园 2室1厅 东,39.934143,2室1厅1卫,116.254448,https://m.lianjia.com/chuzu/bj/zufang/BJ2280941662647615488.html,105,8000,元/月,雪芳园,整租
5d1a21d038a4e51e8e5e59df,1,3,黄村北,北京,大兴,25,南 北,2,近地铁 集中供暖,保利茉莉公馆 3室2厅 南/北,39.780886,3室2厅1卫,116.335491,https://m.lianjia.com/chuzu/bj/zufang/BJ2282624059353612288.html,90,6500,元/月,保利茉莉公馆,整租
5d1a105b38a4e51e8e5e1e87,1,1,丽泽,北京,丰台,143,南,1,近地铁 集中供暖,整租·前泥洼小区 1室1厅 南,39.862237,1室1厅1卫,116.310233,https://m.lianjia.com/chuzu/bj/zufang/BJ2276120955526840320.html,45,4300,元/月,前泥洼小区,整租
5d1a2aea38a4e51e8e5e7201,1,2,顺义城,北京,顺义,,南 北,1,集中供暖 新上,滨河小区 2室1厅 南/北,40.123965,2室1厅1卫,116.688628,https://m.lianjia.com/chuzu/bj/zufang/BJ2265805373749600256.html,68,3000,元/月,滨河小区,整租
5d1a11ee38a4e51e8e5e23f5,1,2,青塔,北京,丰台,,南 西,1,集中供暖 随时看房,整租·青塔秀园 2室1厅 南/西,39.897262,2室1厅1卫,116.269851,https://m.lianjia.com/chuzu/bj/zufang/BJ2260023226262626304.html,58,5000,元/月,青塔秀园,整租
5d1a176038a4e51e8e5e366b,2,2,九棵树(家乐福),北京,通州,,南 北,1,集中供暖,靓景明居 2室1厅 南/北,39.889841,2室1厅2卫,116.643924,https://m.lianjia.com/chuzu/bj/zufang/BJ2226528819626377216.html,102,5600,元/月,靓景明居,整租
5d1a109038a4e51e8e5e1f3e,2,2,刘家窑,北京,丰台,171,南 北,1,近地铁 集中供暖,鲁能钓鱼台美高梅公馆 3房间 南/北,39.851071,3房间2卫,116.430329,https://m.lianjia.com/chuzu/bj/zufang/BJ2262288062518673408.html,63,8000,元/月,鲁能钓鱼台美高梅公馆,整租
5d1a298c38a4e51e8e5e6d31,2,3,马坡,北京,顺义,,南 北,2,精装 集中供暖 双卫生间,整租·中铁花溪渡 3室2厅 南/北,40.189938,3室2厅2卫,116.664815,https://m.lianjia.com/chuzu/bj/zufang/BJ2272274751118376960.html,127,6200,元/月,中铁花溪渡,整租
5d1a0fbc38a4e51e8e5e1c65,2,3,科技园区,北京,大兴,287,南,1,近地铁 集中供暖 新上 随时看房,怡海花园恒泰园 3室1厅 南,39.841008,3室1厅2卫,116.306494,https://m.lianjia.com/chuzu/bj/zufang/BJ2251319243519819776.html,197,18000,元/月,怡海花园恒泰园,整租
5d1a0a2638a4e51e8e5e0955,1,3,魏公村,北京,海淀,282,南 北,1,近地铁 集中供暖 新上,魏公村小区 3室1厅 南/北,39.961832,3室1厅1卫,116.326983,https://m.lianjia.com/chuzu/bj/zufang/BJ2289000481667948544.html,57,9100,元/月,魏公村小区,整租
5d1a2a8038a4e51e8e5e7089,1,3,顺义城,北京,顺义,,南 北,1,,仁和花园一区 3室1厅 南/北,40.116237,3室1厅1卫,116.692086,https://m.lianjia.com/chuzu/bj/zufang/BJ2269278855971733504.html,114,4500,元/月,仁和花园一区,整租
5d1a0bc438a4e51e8e5e0ed0,1,1,西直门,北京,海淀,510,东,1,近地铁 精装 集中供暖,整租·钻河公馆 2房间 跃层 东,39.950656,2房间1卫,116.356938,https://m.lianjia.com/chuzu/bj/zufang/BJ2148497476867596288.html,45,10000,元/月,钻河公馆,整租
5d1a1cdd38a4e51e8e5e49a8,2,3,亦庄,北京,亦庄开发区,,南 北,2,集中供暖 新上,卡尔公寓 3室2厅 南/北,39.794025,3室2厅2卫,116.501327,https://m.lianjia.com/chuzu/bj/zufang/BJ2290359884493103104.html,137,8500,元/月,卡尔公寓,整租
5d1a1bdb38a4e51e8e5e460b,1,2,万达,北京,通州,620,东 西,1,近地铁 集中供暖 随时看房,通惠南路 2室1厅 东/西,39.909642,2室1厅1卫,116.64999,https://m.lianjia.com/chuzu/bj/zufang/BJ2260893049834455040.html,62,3800,元/月,通惠南路,整租
5d1a16ca38a4e51e8e5e3464,1,2,果园,北京,通州,289,南 北,1,近地铁 精装 集中供暖,整租·雅丽世居 2室1厅 南/北,39.902087,2室1厅1卫,116.651427,https://m.lianjia.com/chuzu/bj/zufang/BJ2261473110694313984.html,92,5300,元/月,雅丽世居,整租
5d1a1a9238a4e51e8e5e4189,1,2,通州其它,北京,亦庄开发区,884,北,1,集中供暖,首开万科城市之光 3房间 北,39.823306,3房间1卫,116.595015,https://m.lianjia.com/chuzu/bj/zufang/BJ2163164222928715776.html,55,4500,元/月,首开万科城市之光,整租
5d1a294138a4e51e8e5e6c27,2,3,后沙峪,北京,顺义,,南,1,精装 双卫生间,整租·国门智慧城 4房间 南,40.12395,4房间2卫,116.569194,https://m.lianjia.com/chuzu/bj/zufang/BJ2249058594178220032.html,66,5900,元/月,国门智慧城,整租
5d1a148838a4e51e8e5e2cf3,1,1,鲁谷,北京,石景山,636,西,1,集中供暖 新上 随时看房,远洋山水 1室1厅 西,39.906426,1室1厅1卫,116.247008,https://m.lianjia.com/chuzu/bj/zufang/BJ2289670542745411584.html,57,6500,元/月,远洋山水,整租
5d1a2b5538a4e51e8e5e7374,1,1,顺义其它,北京,顺义,1174,南,1,精装 集中供暖,整租·东亚首航国际 2房间 南,40.134877,2房间1卫,116.605239,https://m.lianjia.com/chuzu/bj/zufang/BJ2268665432846106624.html,58,3800,元/月,东亚首航国际,整租
5d1a159238a4e51e8e5e309d,1,2,石景山其它,北京,门头沟,,南 北,1,,燕山水泥厂 2室1厅 南/北,39.899217,2室1厅1卫,116.185304,https://m.lianjia.com/chuzu/bj/zufang/BJ2286189926229737472.html,57,3800,元/月,燕山水泥厂,整租
5d1a0b7038a4e51e8e5e0db7,1,2,小西天,北京,海淀,,南,1,集中供暖 新上,今典花园 2室1厅 南,39.959568,2室1厅1卫,116.367818,https://m.lianjia.com/chuzu/bj/zufang/BJ2287020287449112576.html,68,8800,元/月,今典花园,整租
5d1a0e1638a4e51e8e5e16b6,1,2,丰台其它,北京,丰台,,南 北,1,随时看房,整租·永兴里 2室1厅 南/北,39.838279,2室1厅1卫,116.20716,https://m.lianjia.com/chuzu/bj/zufang/BJ2207729485602619392.html,53,2200,元/月,永兴里,整租
5d1a2d5e38a4e51e8e5e7a2b,1,1,良乡,北京,房山,16,西,0,近地铁 集中供暖 新上 随时看房,绿地诺亚方舟 1房间 西,39.735903,1房间1卫,116.188119,https://m.lianjia.com/chuzu/bj/zufang/BJ2287482129199661056.html,40,2500,元/月,绿地诺亚方舟,整租
5d1a0c6f38a4e51e8e5e1113,1,2,颐和园,北京,海淀,1011,东南,1,近地铁 集中供暖,邮局宿舍 2室1厅 东南,40.017835,2室1厅1卫,116.292632,https://m.lianjia.com/chuzu/bj/zufang/BJ2272535279464357888.html,55,7500,元/月,邮局宿舍,整租
5d1a176838a4e51e8e5e3688,1,2,九棵树(家乐福),北京,通州,737,南 北,1,近地铁 精装 集中供暖,整租·怡乐北街 2室1厅 南/北,39.894471,2室1厅1卫,116.651623,https://m.lianjia.com/chuzu/bj/zufang/BJ2192755744078831616.html,86,4300,元/月,怡乐北街,整租
5d1a19dc38a4e51e8e5e3f11,1,2,通州北苑,北京,通州,793,南 北,1,近地铁 精装 集中供暖,整租·杨庄小区 2室1厅 南/北,39.905375,2室1厅1卫,116.641763,https://m.lianjia.com/chuzu/bj/zufang/BJ2284781687915151360.html,66,4200,元/月,杨庄小区,整租
5d1a0b8d38a4e51e8e5e0e1c,1,2,小西天,北京,海淀,,南 北,1,集中供暖,整租·学院南路乙10号院 2室1厅 南/北,39.962293,2室1厅1卫,116.371874,https://m.lianjia.com/chuzu/bj/zufang/BJ2263066980900667392.html,100,16000,元/月,学院南路乙10号院,整租
5d1a2bd538a4e51e8e5e74ce,1,2,长阳,北京,房山,,南,1,新上,加州水郡四期 2室1厅 南,39.771077,2室1厅1卫,116.16608,https://m.lianjia.com/chuzu/bj/zufang/BJ2290302974129340416.html,88,3500,元/月,加州水郡四期,整租
5d1a09a138a4e51e8e5e078c,2,3,田村,北京,海淀,,南 北,2,集中供暖 双卫生间,整租·金玉府 3室2厅 南/北,39.926992,3室2厅2卫,116.23675,https://m.lianjia.com/chuzu/bj/zufang/BJ2284767865175818240.html,138,12000,元/月,金玉府,整租
5d1a180238a4e51e8e5e3899,1,1,梨园,北京,通州,969,南,0,近地铁 精装 集中供暖 随时看房,整租·站前巴黎 1房间 南,39.882658,1房间1卫,116.674053,https://m.lianjia.com/chuzu/bj/zufang/BJ2251418030888460288.html,38,2900,元/月,站前巴黎,整租
5d1a166e38a4e51e8e5e3325,1,2,大兴其它,北京,亦庄开发区,,南 北,1,精装 集中供暖,整租·首座御园二区二期 2室1厅 南/北,39.75617,2室1厅1卫,116.373424,https://m.lianjia.com/chuzu/bj/zufang/BJ2118868988514533376.html,92,5000,元/月,首座御园二区二期,整租
5d1a0a1e38a4e51e8e5e093d,1,2,五棵松,北京,海淀,,南 北,1,集中供暖 新上,永金里小区 2室1厅 南/北,39.927194,2室1厅1卫,116.278849,https://m.lianjia.com/chuzu/bj/zufang/BJ2288194097447436288.html,79,6700,元/月,永金里小区,整租
5d1a2a4d38a4e51e8e5e6fd4,1,2,顺义城,北京,顺义,,南 北,1,集中供暖,怡馨家园 2室1厅 南/北,40.125799,2室1厅1卫,116.654682,https://m.lianjia.com/chuzu/bj/zufang/BJ2282636959908642816.html,95,4500,元/月,怡馨家园,整租
5d1a2ec038a4e51e8e5e7eb1,1,1,大峪,北京,门头沟,,南,1,集中供暖,中门寺南坡小区 1室1厅 南,39.938083,1室1厅1卫,116.097515,https://m.lianjia.com/chuzu/bj/zufang/BJ2275221890140749824.html,49,2400,元/月,中门寺南坡小区,整租
5d1a1b0a38a4e51e8e5e4329,1,2,武夷花园,北京,通州,,南 北,1,集中供暖 随时看房,整租·三元村 2室1厅 南/北,39.917501,2室1厅1卫,116.70268,https://m.lianjia.com/chuzu/bj/zufang/BJ2133009634569756672.html,69,3500,元/月,三元村,整租
5d1a2e7938a4e51e8e5e7dbe,1,2,大峪,北京,门头沟,,南,1,集中供暖 随时看房,整租·黑山A1区 2室1厅 南,39.940649,2室1厅1卫,116.101871,https://m.lianjia.com/chuzu/bj/zufang/BJ2263077159361331200.html,66,2600,元/月,黑山A1区,整租
5d1a25e638a4e51e8e5e63e3,2,3,枣园,北京,大兴,474,南 北,1,近地铁 集中供暖 双卫生间 随时看房,整租·兴华园 3室1厅 南/北,39.75179,3室1厅2卫,116.342654,https://m.lianjia.com/chuzu/bj/zufang/BJ2265139533081755648.html,137,6000,元/月,兴华园,整租
5d1a0cef38a4e51e8e5e12c3,1,2,中关村,北京,海淀,717,南 北,1,近地铁 集中供暖 新上 随时看房,整租·空间物理所小区 2室1厅 南/北,39.986676,2室1厅1卫,116.344541,https://m.lianjia.com/chuzu/bj/zufang/BJ2282348264781529088.html,62,8600,元/月,空间物理所小区,整租
5d1a189538a4e51e8e5e3a9a,1,1,临河里,北京,通州,1074,西南,1,近地铁 集中供暖 随时看房,华业东方玫瑰A区 1室1厅 西南,39.886581,1室1厅1卫,116.692068,https://m.lianjia.com/chuzu/bj/zufang/BJ2280135489812176896.html,60,4300,元/月,华业东方玫瑰A区,整租
5d1a0c0a38a4e51e8e5e0fbb,1,2,西二旗,北京,海淀,1093,南,1,近地铁,燕尚园 2室1厅 南,40.054792,2室1厅1卫,116.32033,https://m.lianjia.com/chuzu/bj/zufang/BJ2229470025880969216.html,99,9800,元/月,燕尚园,整租
5d1a297838a4e51e8e5e6ce9,1,3,马坡,北京,顺义,,南 北,1,集中供暖 随时看房,佳和宜园 3室1厅 南/北,40.180093,3室1厅1卫,116.655693,https://m.lianjia.com/chuzu/bj/zufang/BJ2276137412549672960.html,94,3100,元/月,佳和宜园,整租
5d1a140a38a4e51e8e5e2b3c,1,2,八角,北京,石景山,1093,南 北,1,近地铁 集中供暖 随时看房,八角北路 2室1厅 南/北,39.921408,2室1厅1卫,116.203052,https://m.lianjia.com/chuzu/bj/zufang/BJ2284549793982726144.html,57,4500,元/月,八角北路,整租
5d1a092e38a4e51e8e5e0603,2,3,四季青,北京,海淀,827,南 北,1,近地铁 精装 集中供暖 双卫生间,整租·美丽园 3室1厅 南/北,39.942689,3室1厅2卫,116.284321,https://m.lianjia.com/chuzu/bj/zufang/BJ2175800443626856448.html,154,15000,元/月,美丽园,整租
5d1a0c1b38a4e51e8e5e0ff0,1,1,杨庄,北京,石景山,1148,南,0,近地铁 集中供暖,西现代城 1室0厅 南,39.931247,1室0厅1卫,116.196292,https://m.lianjia.com/chuzu/bj/zufang/BJ2278854035341574144.html,54,4500,元/月,西现代城,整租
5d1a0f9f38a4e51e8e5e1bfe,1,2,旧宫,北京,大兴,,东,1,集中供暖,东亚五环国际 3房间 东,39.798966,3房间1卫,116.460975,https://m.lianjia.com/chuzu/bj/zufang/BJ2275368795478966272.html,92,5100,元/月,东亚五环国际,整租
5d1a1e5138a4e51e8e5e4ebe,1,3,东关,北京,昌平,,南 北,1,集中供暖,整租·京科苑 3室1厅 南/北,40.216336,3室1厅1卫,116.254212,https://m.lianjia.com/chuzu/bj/zufang/BJ2261286429151723520.html,91,4000,元/月,京科苑,整租
5d1a153d38a4e51e8e5e2f6d,1,2,门头沟其它,北京,门头沟,,南 北,1,集中供暖,石泉砖厂B9区 2室1厅 南/北,39.950399,2室1厅1卫,116.088127,https://m.lianjia.com/chuzu/bj/zufang/BJ2270759272084684800.html,65,2600,元/月,石泉砖厂B9区,整租
5d1a205538a4e51e8e5e55f2,1,2,西关环岛,北京,昌平,,南 北,1,集中供暖 随时看房,西环里 2室1厅 南/北,40.235529,2室1厅1卫,116.232365,https://m.lianjia.com/chuzu/bj/zufang/BJ2260591017424601088.html,61,3000,元/月,西环里,整租
5d1a243638a4e51e8e5e5f7f,1,1,瀛海,北京,大兴,878,南 北,1,近地铁 集中供暖,瀛海家园畅园C区 1室1厅 南/北,39.768787,1室1厅1卫,116.4478,https://m.lianjia.com/chuzu/bj/zufang/BJ2283320277226233856.html,59,3000,元/月,瀛海家园畅园C区,整租
5d1a14d938a4e51e8e5e2e13,1,1,鲁谷,北京,石景山,552,南,1,集中供暖,远洋沁山水 1室1厅 南,39.90706,1室1厅1卫,116.258281,https://m.lianjia.com/chuzu/bj/zufang/BJ2279713215237857280.html,64,7200,元/月,远洋沁山水,整租
5d1a0fee38a4e51e8e5e1d10,1,3,科技园区,北京,大兴,356,南,2,近地铁 集中供暖,怡海花园富润园 3室2厅 南,39.839115,3室2厅1卫,116.308663,https://m.lianjia.com/chuzu/bj/zufang/BJ2279738426460733440.html,136,9500,元/月,怡海花园富润园,整租
5d1a1d8438a4e51e8e5e4be3,1,1,安宁庄,北京,昌平,,西南,1,集中供暖,整租·阳光北里 1室1厅 西南,40.043347,1室1厅1卫,116.342393,https://m.lianjia.com/chuzu/bj/zufang/BJ2268742973522968576.html,62,5000,元/月,阳光北里,整租
5d1a238f38a4e51e8e5e5dc1,2,4,天宫院南,北京,大兴,,南 北,1,精装 双卫生间 随时看房,整租·富力丹麦小镇 4室1厅 南/北,39.632299,4室1厅2卫,116.317097,https://m.lianjia.com/chuzu/bj/zufang/BJ2239038043183128576.html,231,6800,元/月,富力丹麦小镇,整租
5d1a12fa38a4e51e8e5e2797,2,1,西罗园,北京,丰台,749,北,1,近地铁 集中供暖 新上 随时看房,珠江骏景北区 1室1厅 跃层 北,39.861344,1室1厅2卫,116.401854,https://m.lianjia.com/chuzu/bj/zufang/BJ2289885837284089856.html,62,4800,元/月,珠江骏景北区,整租
5d1a109638a4e51e8e5e1f53,1,2,卢沟桥,北京,丰台,,南 北,1,集中供暖 随时看房,整租·卢沟桥南里 2室1厅 南/北,39.854004,2室1厅1卫,116.238706,https://m.lianjia.com/chuzu/bj/zufang/BJ2238148865616519168.html,55,3200,元/月,卢沟桥南里,整租
5d1a18ef38a4e51e8e5e3bd3,1,4,临河里,北京,通州,,南,1,集中供暖 随时看房,整租·金隅自由筑 5房间 南,39.881771,5房间1卫,116.703689,https://m.lianjia.com/chuzu/bj/zufang/BJ2131783793886109696.html,61,3700,元/月,金隅自由筑,整租
5d1a2f5b38a4e51e8e5e8049,1,3,石门营,北京,门头沟,415,西北,1,近地铁 随时看房,整租·紫金新园三区 3室1厅 西北,39.892679,3室1厅1卫,116.122277,https://m.lianjia.com/chuzu/bj/zufang/BJ2243239698363858944.html,86,3300,元/月,紫金新园三区,整租
5d1a21fe38a4e51e8e5e5a81,1,2,黄村中,北京,大兴,705,西,1,近地铁 随时看房,富强东里 2室1厅 西,39.745849,2室1厅1卫,116.350909,https://m.lianjia.com/chuzu/bj/zufang/BJ2280229609708994560.html,62,3600,元/月,富强东里,整租
5d1a199438a4e51e8e5e3e1c,1,2,乔庄,北京,通州,,南 北,1,集中供暖 新上 随时看房,玉桥北里 2室1厅 南/北,39.899168,2室1厅1卫,116.688527,https://m.lianjia.com/chuzu/bj/zufang/BJ2291177762649538560.html,61,3200,元/月,玉桥北里,整租
5d1a2a1f38a4e51e8e5e6f33,1,3,顺义城,北京,顺义,893,南 北,1,近地铁 集中供暖,金汉绿港三区 3室1厅 南/北,40.142095,3室1厅1卫,116.66605,https://m.lianjia.com/chuzu/bj/zufang/BJ2270224203858837504.html,91,5300,元/月,金汉绿港三区,整租
5d1a0cb238a4e51e8e5e11f1,1,3,皂君庙,北京,海淀,612,南 北,1,近地铁 精装 集中供暖,整租·双榆树南里二区 3室1厅 南/北,39.971446,3室1厅1卫,116.338177,https://m.lianjia.com/chuzu/bj/zufang/BJ2191910656784482304.html,85,18000,元/月,双榆树南里二区,整租
5d1a2a3738a4e51e8e5e6f8a,1,2,顺义城,北京,顺义,753,南 北,1,近地铁 集中供暖,整租·东兴二区 2室1厅 南/北,40.138289,2室1厅1卫,116.673001,https://m.lianjia.com/chuzu/bj/zufang/BJ2282365676285075456.html,68,3800,元/月,东兴二区,整租
5d1a19ee38a4e51e8e5e3f4e,1,2,通州北苑,北京,通州,709,东 南,1,近地铁 集中供暖 随时看房,北苑157 2室1厅 东/南,39.913102,2室1厅1卫,116.636963,https://m.lianjia.com/chuzu/bj/zufang/BJ2259381629409558528.html,80,4200,元/月,北苑157,整租
5d1a0fc738a4e51e8e5e1c8c,1,2,科技园区,北京,大兴,430,东北,1,近地铁 集中供暖,整租·阳光四季 2室1厅 东北,39.84107,2室1厅1卫,116.29921,https://m.lianjia.com/chuzu/bj/zufang/BJ2277433733403648000.html,94,6800,元/月,阳光四季,整租
5d1a0c2738a4e51e8e5e101c,1,2,杨庄,北京,石景山,,南,1,集中供暖 随时看房,杨庄小区 2室1厅 南,39.925938,2室1厅1卫,116.20383,https://m.lianjia.com/chuzu/bj/zufang/BJ2249082305534492672.html,55,4300,元/月,杨庄小区,整租
5d1a107938a4e51e8e5e1ef2,1,2,刘家窑,北京,丰台,1,西,1,近地铁 随时看房,整租·宋家庄家园 2室1厅 西,39.853449,2室1厅1卫,116.432824,https://m.lianjia.com/chuzu/bj/zufang/BJ2268643441389084672.html,68,6800,元/月,宋家庄家园,整租
5d1a0db238a4e51e8e5e155b,1,3,草桥,北京,丰台,794,南 北,2,近地铁 集中供暖,草桥欣园18号院 3室2厅 南/北,39.850312,3室2厅1卫,116.366733,https://m.lianjia.com/chuzu/bj/zufang/BJ2277245418935435264.html,97,8000,元/月,草桥欣园18号院,整租
5d1a1d0138a4e51e8e5e4a28,2,3,玉桥,北京,通州,,南,1,,京艺天朗 3室1厅 南,39.89669,3室1厅2卫,116.693396,https://m.lianjia.com/chuzu/bj/zufang/BJ2286159264878182400.html,126,5300,元/月,京艺天朗,整租
5d1a163638a4e51e8e5e3263,2,3,北关,北京,通州,181,南 北,2,近地铁 集中供暖 双卫生间,整租·天赐良园二期 3室2厅 南/北,39.934305,3室2厅2卫,116.650294,https://m.lianjia.com/chuzu/bj/zufang/BJ2222153580339527680.html,157,8700,元/月,天赐良园二期,整租
5d1a2eaf38a4e51e8e5e7e78,1,2,大峪,北京,门头沟,,南 北,1,集中供暖 随时看房,峪园小区 2室1厅 南/北,39.938303,2室1厅1卫,116.110258,https://m.lianjia.com/chuzu/bj/zufang/BJ2223774252761350144.html,53,2600,元/月,峪园小区,整租
5d1a2d0038a4e51e8e5e78e2,1,2,良乡,北京,房山,,南 北,1,集中供暖,昊天温泉家园 2室1厅 南/北,39.741152,2室1厅1卫,116.155358,https://m.lianjia.com/chuzu/bj/zufang/BJ2267283101472800768.html,72,2500,元/月,昊天温泉家园,整租
